[{"address":"2 E 55th St Unit 803","zip":10022,"price":315000.0,"lat":40.761255,"lng":-73.974483,"beds":2,"baths":2.0,"type":"Condo for sale"},{"address":"Central Park Tower Penthouse-217 W 57th New York St Unit Penthouse","zip":10019,"price":195000000.0,"lat":40.766393,"lng":-73.980991,"beds":7,"baths":10.0,"type":"Condo for sale"},{"address":"620 Sinclair Ave","zip":10312,"price":260000.0,"lat":40.541805,"lng":-74.196109,"beds":4,"baths":2.0,"type":"House for sale"},{"address":"2 E 55th St Unit 908W33","zip":10022,"price":69000.0,"lat":40.761398,"lng":-73.974613,"beds":3,"baths":1.0,"type":"Condo for sale"},{"address":"5 E 64th St","zip":10065,"price":55000000.0,"lat":40.767224,"lng":-73.969856,"beds":7,"baths":2.3738608579684373,"type":"Townhouse for sale"},{"address":"584 Park Pl","zip":11238,"price":690000.0,"lat":40.674363,"lng":-73.958725,"beds":5,"baths":2.0,"type":"House for sale"},{"address":"157 W 126th St Unit 1B","zip":10027,"price":899500.0,"lat":40.809448,"lng":-73.946777,"beds":2,"baths":2.0,"type":"Condo for sale"},{"address":"177 Benedict Rd","zip":10304,"price":16800000.0,"lat":40.595002,"lng":-74.106424,"beds":8,"baths":16.0,"type":"House for sale"},{"address":"875 Morrison Ave Apt 3M","zip":10473,"price":265000.0,"lat":40.821586,"lng":-73.874089,"beds":1,"baths":1.0,"type":"Co-op for sale"},{"address":"1350 Ocean Pkwy Apt 5G","zip":11230,"price":440000.0,"lat":40.615738,"lng":-73.969694,"beds":2,"baths":1.0,"type":"Co-op for sale"},{"address":"800 Grand Concourse Apt 2JS","zip":10451,"price":375000.0,"lat":40.82487,"lng":-73.922983,"beds":2,"baths":1.0,"type":"Co-op for sale"},{"address":"456 Van Name Ave","zip":10303,"price":689000.0,"lat":40.624996,"lng":-74.155306,"beds":3,"baths":2.3738608579684373,"type":"Townhouse for sale"},{"address":"34-41 85th St Unit 1D","zip":11372,"price":259000.0,"lat":40.753119,"lng":-73.881876,"beds":3,"baths":1.0,"type":"Co-op for sale"},{"address":"91-15 Lamont Ave Unit 6D","zip":11373,"price":430000.0,"lat":40.743864,"lng":-73.874572,"beds":2,"baths":2.0,"type":"Co-op for sale"},{"address":"61 Jane St Apt 6N","zip":10014,"price":895000.0,"lat":40.738298,"lng":-74.00589,"beds":3,"baths":1.0,"type":"Co-op for sale"},{"address":"4654 Amboy Rd Unit 2B","zip":10312,"price":549000.0,"lat":40.540621,"lng":-74.167163,"beds":2,"baths":2.0,"type":"Condo for sale"},{"address":"28-31 Hobart St","zip":11377,"price":975000.0,"lat":40.760768,"lng":-73.905667,"beds":3,"baths":2.0,"type":"Townhouse for sale"},{"address":"9430 Ridge Blvd Apt 6D","zip":11209,"price":199000.0,"lat":40.618103,"lng":-74.036905,"beds":3,"baths":1.0,"type":"Co-op for sale"},{"address":"5800 Arlington Ave Apt 21A","zip":10471,"price":350000.0,"lat":40.90737,"lng":-73.906558,"beds":1,"baths":1.0,"type":"Co-op for sale"},{"address":"92-29 Queens Blvd Unit 3H","zip":11374,"price":599000.0,"lat":40.732471,"lng":-73.86708,"beds":2,"baths":2.0,"type":"Condo for sale"},{"address":"27 Clove Way","zip":10301,"price":639999.0,"lat":40.62074,"lng":-74.111436,"beds":3,"baths":2.0,"type":"House for sale"},{"address":"10724 71st Rd Apt 9F","zip":11375,"price":1300000.0,"lat":40.720243,"lng":-73.843051,"beds":2,"baths":2.0,"type":"Condo for sale"},{"address":"1038 Throggs Neck Expy Unit Sr","zip":10465,"price":1100000.0,"lat":40.834394,"lng":-73.82211,"beds":6,"baths":3.0,"type":"Multi-family home for sale"},{"address":"165 Cromwell Ave Apt 2B","zip":10304,"price":349900.0,"lat":40.590206,"lng":-74.095803,"beds":1,"baths":1.0,"type":"Condo for sale"},{"address":"280 Loretto St","zip":10307,"price":750000.0,"lat":40.503979,"lng":-74.239655,"beds":2,"baths":2.0,"type":"House for sale"},{"address":"149-07 85 Rd","zip":11435,"price":1690000.0,"lat":40.710749,"lng":-73.809486,"beds":6,"baths":4.0,"type":"Multi-family home for sale"},{"address":"35-45 81st St Unit E1","zip":11372,"price":325000.0,"lat":40.750508,"lng":-73.885136,"beds":1,"baths":1.0,"type":"Co-op for sale"},{"address":"2361 81st St","zip":11214,"price":2250000.0,"lat":40.602654,"lng":-73.98694,"beds":12,"baths":2.3738608579684373,"type":"Multi-family home for sale"},{"address":"33-24 Junction Blvd Unit 6R","zip":11372,"price":230000.0,"lat":40.755769,"lng":-73.873423,"beds":1,"baths":1.0,"type":"Co-op for sale"},{"address":"310-312 Hillside Ave","zip":10304,"price":1299888.0,"lat":40.615567,"lng":-74.086955,"beds":10,"baths":6.0,"type":"Multi-family home for sale"},{"address":"543 Hollywood Ave","zip":10465,"price":925000.0,"lat":40.824239,"lng":-73.817381,"beds":5,"baths":2.0,"type":"Multi-family home for sale"},{"address":"47 Lynn Ct","zip":10314,"price":329000.0,"lat":40.62104,"lng":-74.150431,"beds":1,"baths":2.0,"type":"Condo for sale"},{"address":"366 Union Ave Unit 4","zip":10303,"price":1300000.0,"lat":40.627438,"lng":-74.158161,"beds":10,"baths":8.0,"type":"Multi-family home for sale"},{"address":"544 Hinsdale St","zip":11207,"price":848000.0,"lat":40.661547,"lng":-73.898309,"beds":5,"baths":4.0,"type":"Multi-family home for sale"},{"address":"1801 Ocean Ave Apt 4A","zip":11230,"price":279000.0,"lat":40.617916,"lng":-73.95463,"beds":1,"baths":1.0,"type":"Co-op for sale"},{"address":"1238 63rd St Unit 432","zip":11219,"price":528000.0,"lat":40.62759,"lng":-74.00162,"beds":1,"baths":1.0,"type":"Condo for sale"},{"address":"310-312 Hillside Ave","zip":10304,"price":1299888.0,"lat":40.615567,"lng":-74.086955,"beds":11,"baths":4.0,"type":"Multi-family home for sale"},{"address":"44-55 Kissena Blvd Unit 5F","zip":11355,"price":275000.0,"lat":40.752877,"lng":-73.821183,"beds":1,"baths":1.0,"type":"Co-op for sale"},{"address":"338 Berry St Apt 4E","zip":11249,"price":1165000.0,"lat":40.711969,"lng":-73.964947,"beds":1,"baths":1.0,"type":"Condo for sale"},{"address":"10 Simon Ct","zip":10307,"price":1199000.0,"lat":40.515926,"lng":-74.236114,"beds":6,"baths":5.0,"type":"Multi-family home for sale"},{"address":"229 W Tremont Ave Unit A","zip":10453,"price":700000.0,"lat":40.852813,"lng":-73.917687,"beds":6,"baths":2.0,"type":"Multi-family home for sale"},{"address":"2226 63rd St","zip":11204,"price":2150000.0,"lat":40.614446,"lng":-73.979582,"beds":8,"baths":4.0,"type":"Multi-family home for sale"},{"address":"86-05 91st Ave","zip":11421,"price":1280000.0,"lat":40.688312,"lng":-73.856322,"beds":7,"baths":5.0,"type":"Multi-family home for sale"},{"address":"828 Gerard Ave Apt 5F","zip":10451,"price":199900.0,"lat":40.826035,"lng":-73.925663,"beds":1,"baths":1.0,"type":"Co-op for sale"},{"address":"43-40 Union St Unit 3D","zip":11355,"price":369000.0,"lat":40.753455,"lng":-73.820908,"beds":2,"baths":1.0,"type":"Co-op for sale"},{"address":"111-31 141st St","zip":11435,"price":699000.0,"lat":40.68475,"lng":-73.802733,"beds":4,"baths":3.0,"type":"Multi-family home for sale"},{"address":"123 Prince St Unit 1","zip":10012,"price":4250000.0,"lat":40.725464,"lng":-73.999921,"beds":3,"baths":2.0,"type":"Co-op for sale"},{"address":"32-39 Jordan St","zip":11358,"price":825000.0,"lat":40.768457,"lng":-73.789417,"beds":2,"baths":2.0,"type":"Multi-family home for sale"},{"address":"55 Austin Pl Apt 4L","zip":10304,"price":329000.0,"lat":40.631535,"lng":-74.085634,"beds":2,"baths":1.0,"type":"Condo for sale"},{"address":"17 S Greenleaf Ave","zip":10314,"price":889000.0,"lat":40.623319,"lng":-74.125992,"beds":2,"baths":2.0,"type":"Multi-family home for sale"},{"address":"101-55 112th St","zip":11419,"price":769000.0,"lat":40.686833,"lng":-73.830913,"beds":2,"baths":2.0,"type":"Multi-family home for sale"},{"address":"66 Bay 22nd St","zip":11214,"price":1200000.0,"lat":40.604286,"lng":-74.001253,"beds":4,"baths":2.0,"type":"Multi-family home for sale"},{"address":"350 Richmond Ter Apt 3M","zip":10301,"price":220500.0,"lat":40.648149,"lng":-74.084798,"beds":2,"baths":1.0,"type":"Co-op for sale"},{"address":"259 80th St","zip":11209,"price":1999000.0,"lat":40.628169,"lng":-74.02976,"beds":3,"baths":3.0,"type":"Multi-family home for sale"},{"address":"240 Centre St Unit 2M","zip":10013,"price":3250000.0,"lat":40.719972,"lng":-73.998027,"beds":2,"baths":2.0,"type":"Co-op for sale"},{"address":"473 Hicks St Apt 4","zip":11231,"price":1650000.0,"lat":40.68661,"lng":-73.999713,"beds":2,"baths":2.0,"type":"Condo for sale"},{"address":"342 Manhattan St","zip":10307,"price":1049000.0,"lat":40.501623,"lng":-74.241753,"beds":4,"baths":4.0,"type":"Multi-family home for sale"},{"address":"1191 Clove Rd","zip":10301,"price":998800.0,"lat":40.6175,"lng":-74.103996,"beds":3,"baths":4.0,"type":"House for sale"},{"address":"Waldron Ave","zip":10301,"price":998800.0,"lat":40.618648,"lng":-74.101908,"beds":3,"baths":4.0,"type":"House for sale"},{"address":"184 Lincoln Pl Unit 2","zip":11217,"price":3150000.0,"lat":40.675404,"lng":-73.974205,"beds":3,"baths":2.0,"type":"For sale"},{"address":"263 W End Ave Apt 14C","zip":10023,"price":849000.0,"lat":40.780236,"lng":-73.984633,"beds":1,"baths":1.0,"type":"Co-op for sale"},{"address":"50 Brighton 1 Rd Unit 5H","zip":11235,"price":559500.0,"lat":40.575194,"lng":-73.966998,"beds":1,"baths":1.0,"type":"Co-op for sale"},{"address":"333 E 66th St Apt 8E","zip":10065,"price":750000.0,"lat":40.764371,"lng":-73.959358,"beds":1,"baths":1.0,"type":"Co-op for sale"},{"address":"150 Rivington St Apt 3G","zip":10002,"price":1900000.0,"lat":40.719341,"lng":-73.985644,"beds":2,"baths":2.0,"type":"Condo for sale"},{"address":"1105 Cortelyou Rd # 301","zip":11218,"price":1250000.0,"lat":40.640023,"lng":-73.96761,"beds":2,"baths":2.0,"type":"Condo for sale"},{"address":"737 Bergen St Apt 1B","zip":11238,"price":1395000.0,"lat":40.678779,"lng":-73.964373,"beds":2,"baths":2.0,"type":"Condo for sale"},{"address":"83-55 Woodhaven Blvd Unit 1A","zip":11421,"price":198000.0,"lat":40.700309,"lng":-73.853547,"beds":1,"baths":1.0,"type":"Co-op for sale"},{"address":"35 Center Pl","zip":10306,"price":619888.0,"lat":40.563212,"lng":-74.100252,"beds":3,"baths":2.0,"type":"Contingent"},{"address":"205 Wiman Ave","zip":10308,"price":1489000.0,"lat":40.539532,"lng":-74.145088,"beds":6,"baths":2.3738608579684373,"type":"Multi-family home for sale"},{"address":"4 E 79th St","zip":10075,"price":65000000.0,"lat":40.776561,"lng":-73.963317,"beds":3,"baths":2.3738608579684373,"type":"Townhouse for sale"},{"address":"924 Lafayette Ave Unit Ph","zip":11221,"price":1595000.0,"lat":40.691514,"lng":-73.935444,"beds":3,"baths":3.0,"type":"Condo for sale"},{"address":"1504 Jefferson Ave Unit Gardenb","zip":11237,"price":655000.0,"lat":40.696727,"lng":-73.907404,"beds":3,"baths":2.0,"type":"Condo for sale"},{"address":"924 Lafayette Ave Apt 2","zip":11221,"price":1175000.0,"lat":40.691514,"lng":-73.935444,"beds":2,"baths":2.0,"type":"Condo for sale"},{"address":"16-33 166th St","zip":11357,"price":2880000.0,"lat":40.783209,"lng":-73.796759,"beds":9,"baths":2.3738608579684373,"type":"Multi-family home for sale"},{"address":"425 Father Capodanno Blvd","zip":10305,"price":798000.0,"lat":40.587484,"lng":-74.070106,"beds":3,"baths":4.0,"type":"Multi-family home for sale"},{"address":"519 Fairview Ave","zip":11385,"price":1685000.0,"lat":40.708343,"lng":-73.908161,"beds":3,"baths":2.3738608579684373,"type":"Land for sale"},{"address":"111 W 57th St # 50","zip":10019,"price":31000000.0,"lat":40.764953,"lng":-73.977568,"beds":3,"baths":4.0,"type":"Condo for sale"},{"address":"234 Ocean View Ave","zip":11235,"price":2550000.0,"lat":40.578529,"lng":-73.965567,"beds":3,"baths":2.3738608579684373,"type":"Land for sale"},{"address":"3652 DE Reimer Ave","zip":10466,"price":119000.0,"lat":40.88417,"lng":-73.838839,"beds":3,"baths":2.3738608579684373,"type":"Land for sale"},{"address":"24149 148th Dr","zip":11422,"price":269000.0,"lat":40.653443,"lng":-73.741373,"beds":5,"baths":2.0,"type":"Foreclosure"},{"address":"200 E 94th St Apt 414","zip":10128,"price":1650000.0,"lat":40.783355,"lng":-73.949998,"beds":2,"baths":2.0,"type":"Condo for sale"},{"address":"200 E 94th St Apt 414","zip":10128,"price":1650000.0,"lat":40.783355,"lng":-73.949998,"beds":2,"baths":2.0,"type":"Condo for sale"},{"address":"214 W 11th St","zip":10014,"price":12950000.0,"lat":40.736322,"lng":-74.001803,"beds":5,"baths":4.0,"type":"Townhouse for sale"},{"address":"250 E 21st St Unit 12B","zip":10010,"price":5750000.0,"lat":40.736608,"lng":-73.982282,"beds":3,"baths":2.0,"type":"Condo for sale"},{"address":"130-24 150th St","zip":11436,"price":250000.0,"lat":40.66911,"lng":-73.789339,"beds":5,"baths":2.0,"type":"Multi-family home for sale"},{"address":"254-06 Craft Ave Unit 2","zip":11422,"price":950000.0,"lat":40.649903,"lng":-73.735471,"beds":6,"baths":2.3738608579684373,"type":"Pending"},{"address":"192 Colfax Ave","zip":10306,"price":585000.0,"lat":40.578426,"lng":-74.105437,"beds":3,"baths":2.0,"type":"House for sale"},{"address":"8200 Narrows Ave","zip":11209,"price":8750000.0,"lat":40.628293,"lng":-74.03797,"beds":6,"baths":6.0,"type":"House for sale"},{"address":"1509 E 48th St","zip":11234,"price":595000.0,"lat":40.623915,"lng":-73.929123,"beds":3,"baths":1.0,"type":"House for sale"},{"address":"195 Prince St Unit 1LL","zip":10012,"price":215000.0,"lat":40.726773,"lng":-74.002538,"beds":1,"baths":1.0,"type":"Condo for sale"},{"address":"The Rockwell # 3A","zip":10025,"price":950000.0,"lat":40.798658,"lng":-73.967904,"beds":1,"baths":1.0,"type":"For sale"},{"address":"850 E 39th St","zip":11210,"price":314000.0,"lat":40.636237,"lng":-73.939679,"beds":3,"baths":1.0,"type":"House for sale"},{"address":"110 E 71st St Unit Medical","zip":10021,"price":395000.0,"lat":40.77004,"lng":-73.963887,"beds":5,"baths":1.0,"type":"Condo for sale"},{"address":"1406 Mac Donough Pl","zip":10465,"price":600000.0,"lat":40.842954,"lng":-73.824959,"beds":2,"baths":2.0,"type":"Multi-family home for sale"},{"address":"78 Mountainview Ave","zip":10314,"price":790000.0,"lat":40.610586,"lng":-74.126818,"beds":6,"baths":3.0,"type":"Multi-family home for sale"},{"address":"9425 Shore Rd Apt 4F","zip":11209,"price":539000.0,"lat":40.617073,"lng":-74.038384,"beds":2,"baths":2.0,"type":"Co-op for sale"},{"address":"2501 Palisade Ave Apt H2","zip":10463,"price":1295000.0,"lat":40.880987,"lng":-73.922434,"beds":4,"baths":2.0,"type":"Co-op for sale"},{"address":"2942 Lurting Ave","zip":10469,"price":245000.0,"lat":40.869011,"lng":-73.856444,"beds":3,"baths":1.0,"type":"House for sale"},{"address":"340 E 234th St","zip":10470,"price":400000.0,"lat":40.896915,"lng":-73.865498,"beds":7,"baths":3.0,"type":"House for sale"},{"address":"25 Riverside Dr","zip":10023,"price":55000000.0,"lat":40.782238,"lng":-73.984632,"beds":8,"baths":8.0,"type":"House for sale"},{"address":"8015 6th Ave Apt A1","zip":11209,"price":280000.0,"lat":40.624177,"lng":-74.021684,"beds":1,"baths":1.0,"type":"Co-op for sale"},{"address":"40 Adelphi Ave","zip":10309,"price":899000.0,"lat":40.5159,"lng":-74.231482,"beds":3,"baths":2.0,"type":"House for sale"},{"address":"The Rockwell # 6E","zip":10025,"price":2280000.0,"lat":40.798658,"lng":-73.967904,"beds":2,"baths":2.0,"type":"For sale"},{"address":"194 Carroll St","zip":11231,"price":649000.0,"lat":40.681343,"lng":-73.998151,"beds":4,"baths":3.0,"type":"Coming Soon"},{"address":"38 Dare Ct","zip":11229,"price":739000.0,"lat":40.587799,"lng":-73.921619,"beds":6,"baths":4.0,"type":"Pending"},{"address":"31 4th Ct","zip":10312,"price":1495000.0,"lat":40.524763,"lng":-74.168104,"beds":4,"baths":2.3738608579684373,"type":"House for sale"},{"address":"591 4th St","zip":11215,"price":3950000.0,"lat":40.668062,"lng":-73.974838,"beds":5,"baths":2.0,"type":"House for sale"},{"address":"122 E 102nd St Apt 5B","zip":10029,"price":325000.0,"lat":40.789751,"lng":-73.948726,"beds":2,"baths":1.0,"type":"Condo for sale"},{"address":"215 W 75th St Apt 4D","zip":10023,"price":299999.0,"lat":40.781058,"lng":-73.980841,"beds":3,"baths":1.0,"type":"Pending"},{"address":"327 Convent Ave","zip":10031,"price":2695000.0,"lat":40.823513,"lng":-73.946751,"beds":6,"baths":5.0,"type":"Townhouse for sale"},{"address":"1151 83rd St","zip":11228,"price":4800000.0,"lat":40.617818,"lng":-74.015117,"beds":6,"baths":2.3738608579684373,"type":"Pending"},{"address":"364 Armstrong Ave","zip":10308,"price":694000.0,"lat":40.542313,"lng":-74.155567,"beds":3,"baths":3.0,"type":"House for sale"},{"address":"761 S Oak Dr","zip":10467,"price":688888.0,"lat":40.872618,"lng":-73.865177,"beds":4,"baths":2.0,"type":"House for sale"},{"address":"781 Sheperd Ave","zip":11208,"price":400000.0,"lat":40.665357,"lng":-73.877087,"beds":4,"baths":2.0,"type":"House for sale"},{"address":"103-12 104th St","zip":11417,"price":346000.0,"lat":40.683789,"lng":-73.838104,"beds":5,"baths":2.0,"type":"Multi-family home for sale"},{"address":"781 Sheperd Ave","zip":11208,"price":400000.0,"lat":40.665357,"lng":-73.877087,"beds":4,"baths":2.0,"type":"House for sale"},{"address":"103-12 104th St","zip":11417,"price":346000.0,"lat":40.683789,"lng":-73.838104,"beds":5,"baths":2.0,"type":"Multi-family home for sale"},{"address":"135-38 224th St","zip":11413,"price":265000.0,"lat":40.67538,"lng":-73.747257,"beds":3,"baths":1.0,"type":"House for sale"},{"address":"57 Neutral Ave","zip":10306,"price":319000.0,"lat":40.56047,"lng":-74.101893,"beds":3,"baths":2.0,"type":"House for sale"},{"address":"45 E 74th St","zip":10021,"price":24800000.0,"lat":40.772929,"lng":-73.963546,"beds":6,"baths":8.0,"type":"Townhouse for sale"},{"address":"421 W 154th St","zip":10032,"price":1100000.0,"lat":40.830711,"lng":-73.942423,"beds":9,"baths":4.0,"type":"House for sale"},{"address":"2918 Brookhaven Ave","zip":11691,"price":309000.0,"lat":40.59807,"lng":-73.763265,"beds":6,"baths":2.0,"type":"Multi-family home for sale"},{"address":"237-14 93rd Rd","zip":11426,"price":650000.0,"lat":40.723245,"lng":-73.729329,"beds":3,"baths":2.0,"type":"House for sale"},{"address":"604 Lamont Ave","zip":10312,"price":799000.0,"lat":40.538781,"lng":-74.193378,"beds":4,"baths":2.0,"type":"House for sale"},{"address":"7E Edgewater Park Unit E","zip":10465,"price":259000.0,"lat":40.824637,"lng":-73.807206,"beds":3,"baths":2.0,"type":"Co-op for sale"},{"address":"52 Indale Ave","zip":10309,"price":1195000.0,"lat":40.514302,"lng":-74.204473,"beds":4,"baths":4.0,"type":"House for sale"},{"address":"37 Warren St Unit Phcd","zip":10007,"price":17500000.0,"lat":40.714335,"lng":-74.008744,"beds":5,"baths":6.0,"type":"Condo for sale"},{"address":"20 Cliff St Apt 6D","zip":10305,"price":189000.0,"lat":40.610959,"lng":-74.060351,"beds":2,"baths":2.0,"type":"Condo for sale"},{"address":"206-04 Emily Rd Unit 37M","zip":11360,"price":759000.0,"lat":40.788176,"lng":-73.787705,"beds":3,"baths":2.0,"type":"Condo for sale"},{"address":"579 E 29th St","zip":11210,"price":275000.0,"lat":40.636686,"lng":-73.948818,"beds":4,"baths":1.0,"type":"House for sale"},{"address":"157 E 72nd St Apt 8I","zip":10021,"price":499000.0,"lat":40.770232,"lng":-73.961016,"beds":1,"baths":1.0,"type":"Condo for sale"},{"address":"3021 Arlington Ave","zip":10463,"price":1249000.0,"lat":40.882291,"lng":-73.91373,"beds":3,"baths":2.3738608579684373,"type":"House for sale"},{"address":"61 Edgewater Park Unit B","zip":10465,"price":69900.0,"lat":40.822499,"lng":-73.811157,"beds":2,"baths":1.0,"type":"Co-op for sale"},{"address":"32-40 48 St","zip":11103,"price":1150000.0,"lat":40.755049,"lng":-73.913639,"beds":12,"baths":6.0,"type":"Multi-family home for sale"},{"address":"517 W 142nd St","zip":10031,"price":1749900.0,"lat":40.824015,"lng":-73.950207,"beds":5,"baths":4.0,"type":"Foreclosure"},{"address":"269-10 Grand Central Pkwy Unit 21W","zip":11005,"price":1399000.0,"lat":40.75669,"lng":-73.72075,"beds":3,"baths":4.0,"type":"Co-op for sale"},{"address":"163-04 71st Ave Unit 122","zip":11365,"price":649000.0,"lat":40.730294,"lng":-73.805925,"beds":3,"baths":2.0,"type":"Condo for sale"},{"address":"2774 Marion Ave","zip":10458,"price":499000.0,"lat":40.866386,"lng":-73.887895,"beds":5,"baths":2.0,"type":"House for sale"},{"address":"2818 Miles Ave","zip":10465,"price":1050000.0,"lat":40.817655,"lng":-73.819705,"beds":5,"baths":4.0,"type":"Multi-family home for sale"},{"address":"137 W 80th St","zip":10024,"price":5000000.0,"lat":40.78326,"lng":-73.976047,"beds":10,"baths":9.0,"type":"Townhouse for sale"},{"address":"16 Mapleton Ave","zip":10306,"price":90000.0,"lat":40.574451,"lng":-74.092945,"beds":1,"baths":1.0,"type":"Pending"},{"address":"9 W 54th St","zip":10019,"price":56000000.0,"lat":40.7616,"lng":-73.976191,"beds":11,"baths":10.0,"type":"House for sale"},{"address":"1544 Ohm Ave","zip":10465,"price":650000.0,"lat":40.84545,"lng":-73.820977,"beds":3,"baths":2.3738608579684373,"type":"Townhouse for sale"},{"address":"251 W 89th St Apt 6E","zip":10024,"price":500000.0,"lat":40.790571,"lng":-73.975339,"beds":4,"baths":3.0,"type":"Condo for sale"},{"address":"750 Patterson Ave","zip":10306,"price":350000.0,"lat":40.573127,"lng":-74.089182,"beds":2,"baths":1.0,"type":"House for sale"},{"address":"204-34 9th Ave","zip":11697,"price":1099000.0,"lat":40.559561,"lng":-73.914741,"beds":4,"baths":2.0,"type":"House for sale"},{"address":"1383 Plimpton Ave Apt 1C","zip":10452,"price":90000.0,"lat":40.842371,"lng":-73.923444,"beds":1,"baths":1.0,"type":"Co-op for sale"},{"address":"158-35 87th St","zip":11414,"price":839000.0,"lat":40.659091,"lng":-73.845197,"beds":4,"baths":2.0,"type":"House for sale"},{"address":"148-05 111th Ave","zip":11435,"price":659000.0,"lat":40.688533,"lng":-73.796529,"beds":8,"baths":3.0,"type":"House for sale"},{"address":"148-05 111th Ave","zip":11435,"price":659000.0,"lat":40.688533,"lng":-73.796529,"beds":8,"baths":3.0,"type":"House for sale"},{"address":"178 Beach 24th St","zip":11691,"price":399999.0,"lat":40.595002,"lng":-73.757738,"beds":3,"baths":1.0,"type":"House for sale"},{"address":"3105 Avenue V Apt 1F","zip":11229,"price":250000.0,"lat":40.599708,"lng":-73.934497,"beds":3,"baths":1.0,"type":"Condo for sale"},{"address":"The Rockwell # 6H","zip":10025,"price":1740000.0,"lat":40.798658,"lng":-73.967904,"beds":2,"baths":2.0,"type":"For sale"},{"address":"115115 220th St","zip":11411,"price":650000.0,"lat":40.696871,"lng":-73.73904,"beds":4,"baths":2.0,"type":"House for sale"},{"address":"67 Dexter Ave","zip":10309,"price":1165000.0,"lat":40.539729,"lng":-74.215525,"beds":3,"baths":4.0,"type":"House for sale"},{"address":"447 Vernon Ave","zip":10309,"price":729900.0,"lat":40.530213,"lng":-74.198191,"beds":3,"baths":2.0,"type":"House for sale"},{"address":"3758 Bayview Ave","zip":11224,"price":1880000.0,"lat":40.580526,"lng":-74.006106,"beds":3,"baths":4.0,"type":"House for sale"},{"address":"26910 Grand Central Pkwy Apt 22L","zip":11005,"price":449000.0,"lat":40.757799,"lng":-73.715956,"beds":2,"baths":2.0,"type":"Co-op for sale"},{"address":"251 Beach 140th St","zip":11694,"price":1175000.0,"lat":40.57372,"lng":-73.857779,"beds":3,"baths":2.0,"type":"House for sale"},{"address":"16 Gay St","zip":10014,"price":2750000.0,"lat":40.733669,"lng":-74.000518,"beds":3,"baths":2.0,"type":"Townhouse for sale"},{"address":"159-03 83rd St","zip":11414,"price":995000.0,"lat":40.657686,"lng":-73.848913,"beds":3,"baths":2.0,"type":"House for sale"},{"address":"200 Rector Pl Unit 27EF","zip":10280,"price":2000000.0,"lat":40.708644,"lng":-74.016195,"beds":3,"baths":2.0,"type":"Condo for sale"},{"address":"126 Pierrepont St","zip":11201,"price":15000000.0,"lat":40.694897,"lng":-73.992574,"beds":8,"baths":6.0,"type":"Townhouse for sale"},{"address":"25 Copperleaf Ter","zip":10304,"price":2800000.0,"lat":40.586119,"lng":-74.107548,"beds":4,"baths":6.0,"type":"House for sale"},{"address":"214-42 27th Ave","zip":11360,"price":2600000.0,"lat":40.778042,"lng":-73.773963,"beds":5,"baths":4.0,"type":"House for sale"},{"address":"51 Hamilton Ter","zip":10031,"price":3500000.0,"lat":40.822914,"lng":-73.946062,"beds":6,"baths":6.0,"type":"Townhouse for sale"},{"address":"609 Columbus Ave Apt 10I","zip":10024,"price":550000.0,"lat":40.788708,"lng":-73.970009,"beds":1,"baths":1.0,"type":"Co-op for sale"},{"address":"290 Lake Ave","zip":10303,"price":769000.0,"lat":40.629196,"lng":-74.151865,"beds":3,"baths":4.0,"type":"Pending"},{"address":"2519 Mill Ave","zip":11234,"price":675000.0,"lat":40.610206,"lng":-73.91065,"beds":3,"baths":2.0,"type":"House for sale"},{"address":"48 Princewood Ave","zip":10309,"price":879000.0,"lat":40.527325,"lng":-74.198328,"beds":4,"baths":2.0,"type":"House for sale"},{"address":"30-36 88th St","zip":11369,"price":918888.0,"lat":40.760703,"lng":-73.880887,"beds":3,"baths":2.0,"type":"House for sale"},{"address":"396 A 9th St Unit 2","zip":11215,"price":2400000.0,"lat":40.667494,"lng":-73.983215,"beds":4,"baths":2.0,"type":"Townhouse for sale"},{"address":"45-12 244th St","zip":11362,"price":1730000.0,"lat":40.765022,"lng":-73.7422,"beds":6,"baths":2.3738608579684373,"type":"House for sale"},{"address":"755 Coster St","zip":10474,"price":425000.0,"lat":40.815997,"lng":-73.8881,"beds":5,"baths":2.0,"type":"Multi-family home for sale"},{"address":"33-02 Parsons Blvd","zip":11354,"price":2500000.0,"lat":40.767967,"lng":-73.824607,"beds":5,"baths":2.3738608579684373,"type":"House for sale"},{"address":"336 Bethel Ave","zip":10307,"price":998000.0,"lat":40.515251,"lng":-74.235145,"beds":4,"baths":4.0,"type":"House for sale"},{"address":"222 Hart Blvd","zip":10301,"price":1195000.0,"lat":40.629643,"lng":-74.100527,"beds":4,"baths":4.0,"type":"House for sale"},{"address":"1217 84th St","zip":11228,"price":1649000.0,"lat":40.616418,"lng":-74.014244,"beds":3,"baths":2.0,"type":"House for sale"},{"address":"82 Vineland Ave","zip":10312,"price":955000.0,"lat":40.551184,"lng":-74.184065,"beds":4,"baths":4.0,"type":"House for sale"},{"address":"117-37 141st St","zip":11436,"price":949000.0,"lat":40.677393,"lng":-73.800094,"beds":6,"baths":3.0,"type":"Multi-family home for sale"},{"address":"190-16 33rd Ave","zip":11358,"price":880000.0,"lat":40.766831,"lng":-73.791117,"beds":3,"baths":2.0,"type":"House for sale"},{"address":"145 Reade St","zip":10013,"price":39995000.0,"lat":40.716422,"lng":-74.01012,"beds":4,"baths":2.3738608579684373,"type":"Townhouse for sale"},{"address":"246 E 58th St # Th","zip":10022,"price":1250000.0,"lat":40.760025,"lng":-73.965355,"beds":8,"baths":2.3738608579684373,"type":"Townhouse for sale"},{"address":"61 Prescott Ave","zip":10306,"price":899999.0,"lat":40.578859,"lng":-74.11209,"beds":3,"baths":2.0,"type":"Contingent"},{"address":"118-18 Union Tpke Unit 7D","zip":11415,"price":198000.0,"lat":40.71276,"lng":-73.83433,"beds":1,"baths":1.0,"type":"Condo for sale"},{"address":"2808 Wickham Ave","zip":10469,"price":549000.0,"lat":40.86797,"lng":-73.836565,"beds":5,"baths":3.0,"type":"House for sale"},{"address":"1568 W 2nd St","zip":11204,"price":1088888.0,"lat":40.609091,"lng":-73.976265,"beds":3,"baths":4.0,"type":"House for sale"},{"address":"3079 Giegerich Pl","zip":10465,"price":888000.0,"lat":40.813077,"lng":-73.806336,"beds":4,"baths":2.0,"type":"House for sale"},{"address":"1287266 45 Madison St Unit 1","zip":10038,"price":65000.0,"lat":40.71207,"lng":-73.998326,"beds":3,"baths":1.0,"type":"For sale"},{"address":"21-89 47th St","zip":11105,"price":1449999.0,"lat":40.769777,"lng":-73.901448,"beds":3,"baths":2.0,"type":"House for sale"},{"address":"45 W 70th St","zip":10023,"price":14900000.0,"lat":40.775819,"lng":-73.978526,"beds":5,"baths":5.0,"type":"Townhouse for sale"},{"address":"871 Putnam Ave","zip":11221,"price":1695000.0,"lat":40.686947,"lng":-73.926188,"beds":5,"baths":2.0,"type":"Coming Soon"},{"address":"152 Whitson St","zip":11375,"price":2499000.0,"lat":40.71077,"lng":-73.840694,"beds":5,"baths":2.3738608579684373,"type":"House for sale"},{"address":"59 Duffield St","zip":11201,"price":1970000.0,"lat":40.696533,"lng":-73.983965,"beds":4,"baths":4.0,"type":"Townhouse for sale"},{"address":"905 Union St Apt 1","zip":11215,"price":1895000.0,"lat":40.673976,"lng":-73.973535,"beds":2,"baths":2.0,"type":"Co-op for sale"},{"address":"46 Kirshon Ave","zip":10314,"price":689000.0,"lat":40.613776,"lng":-74.160031,"beds":3,"baths":2.3738608579684373,"type":"House for sale"},{"address":"219 Slater Blvd","zip":10305,"price":649999.0,"lat":40.580333,"lng":-74.088517,"beds":3,"baths":2.0,"type":"House for sale"},{"address":"74 Holly St","zip":10304,"price":669000.0,"lat":40.599352,"lng":-74.095388,"beds":3,"baths":2.0,"type":"House for sale"},{"address":"1485 E 53rd St","zip":11234,"price":800000.0,"lat":40.622273,"lng":-73.924094,"beds":3,"baths":2.0,"type":"House for sale"},{"address":"10 Bleecker St Apt 5D","zip":10012,"price":2375000.0,"lat":40.725219,"lng":-73.992976,"beds":1,"baths":2.0,"type":"Co-op for sale"},{"address":"726 Nostrand Ave","zip":11216,"price":2400000.0,"lat":40.673857,"lng":-73.950609,"beds":6,"baths":6.0,"type":"For sale"},{"address":"231 Freeborn St","zip":10306,"price":390000.0,"lat":40.574103,"lng":-74.093167,"beds":2,"baths":1.0,"type":"House for sale"},{"address":"302 W 12th St Apt 7F","zip":10014,"price":2250000.0,"lat":40.737308,"lng":-74.004667,"beds":1,"baths":1.0,"type":"Condo for sale"},{"address":"308 Poillon Ave","zip":10312,"price":1450000.0,"lat":40.527309,"lng":-74.175343,"beds":4,"baths":2.3738608579684373,"type":"House for sale"},{"address":"627 Wilson Ave Apt 3","zip":11207,"price":725000.0,"lat":40.689816,"lng":-73.906247,"beds":2,"baths":2.0,"type":"Condo for sale"},{"address":"4901 Henry Hudson Pkwy W Apt 5F","zip":10471,"price":269000.0,"lat":40.896805,"lng":-73.908747,"beds":1,"baths":1.0,"type":"Co-op for sale"},{"address":"575 Park Ave Unit 1101","zip":10065,"price":695000.0,"lat":40.765172,"lng":-73.967872,"beds":2,"baths":2.0,"type":"Co-op for sale"},{"address":"246 Newman Ave","zip":10473,"price":1300000.0,"lat":40.810915,"lng":-73.853921,"beds":3,"baths":2.0,"type":"House for sale"},{"address":"2475 W 16th St Apt 19H","zip":11214,"price":459000.0,"lat":40.586648,"lng":-73.984516,"beds":3,"baths":2.0,"type":"Co-op for sale"},{"address":"596 College Ave","zip":10302,"price":689999.0,"lat":40.621814,"lng":-74.140626,"beds":3,"baths":2.0,"type":"House for sale"},{"address":"58-03 Calloway St Unit 2P2","zip":11368,"price":425000.0,"lat":40.738185,"lng":-73.858125,"beds":3,"baths":2.0,"type":"Co-op for sale"},{"address":"166 E 64th St","zip":10065,"price":10000000.0,"lat":40.764989,"lng":-73.965533,"beds":5,"baths":4.0,"type":"House for sale"},{"address":"67 Riverside Dr Apt 1C","zip":10024,"price":1525000.0,"lat":40.784623,"lng":-73.982659,"beds":2,"baths":2.0,"type":"Co-op for sale"},{"address":"2619 Shore Pkwy","zip":11223,"price":1499000.0,"lat":40.583514,"lng":-73.97389,"beds":9,"baths":6.0,"type":"Multi-family home for sale"},{"address":"575 Park Ave Unit 1101","zip":10065,"price":695000.0,"lat":40.765172,"lng":-73.967872,"beds":2,"baths":2.0,"type":"Co-op for sale"},{"address":"246 Newman Ave","zip":10473,"price":1300000.0,"lat":40.810915,"lng":-73.853921,"beds":3,"baths":2.0,"type":"House for sale"},{"address":"4901 Henry Hudson Pkwy W Apt 5F","zip":10471,"price":269000.0,"lat":40.896805,"lng":-73.908747,"beds":1,"baths":1.0,"type":"Co-op for sale"},{"address":"58-03 Calloway St Unit 2P2","zip":11368,"price":425000.0,"lat":40.738185,"lng":-73.858125,"beds":3,"baths":2.0,"type":"Co-op for sale"},{"address":"2619 Shore Pkwy","zip":11223,"price":1499000.0,"lat":40.583514,"lng":-73.97389,"beds":9,"baths":6.0,"type":"Multi-family home for sale"},{"address":"62 Simmons Ln","zip":10314,"price":519000.0,"lat":40.593938,"lng":-74.184315,"beds":3,"baths":2.0,"type":"House for sale"},{"address":"212-79 16 Ave Unit 183","zip":11360,"price":358000.0,"lat":40.785517,"lng":-73.779761,"beds":2,"baths":1.0,"type":"Co-op for sale"},{"address":"360 W 22nd St Apt 9J","zip":10011,"price":975000.0,"lat":40.745505,"lng":-74.0016,"beds":3,"baths":1.0,"type":"Co-op for sale"},{"address":"123 E 35th St","zip":10016,"price":29200000.0,"lat":40.747472,"lng":-73.979679,"beds":12,"baths":10.0,"type":"Townhouse for sale"},{"address":"138 71st St Apt E10","zip":11209,"price":498000.0,"lat":40.635116,"lng":-74.031161,"beds":2,"baths":1.0,"type":"Co-op for sale"},{"address":"1805 215th St Apt 4S","zip":11360,"price":385000.0,"lat":40.78393,"lng":-73.77643,"beds":1,"baths":2.0,"type":"Co-op for sale"},{"address":"851 Van Nest Ave","zip":10462,"price":999000.0,"lat":40.845107,"lng":-73.860158,"beds":6,"baths":2.0,"type":"Multi-family home for sale"},{"address":"34-41 85th St Unit 3U","zip":11372,"price":399000.0,"lat":40.753119,"lng":-73.881876,"beds":1,"baths":1.0,"type":"Co-op for sale"},{"address":"77 Harbour Ct","zip":10308,"price":599000.0,"lat":40.538735,"lng":-74.142389,"beds":4,"baths":4.0,"type":"Contingent"},{"address":"70 Savo Loop","zip":10309,"price":829888.0,"lat":40.521278,"lng":-74.223035,"beds":4,"baths":2.3738608579684373,"type":"House for sale"},{"address":"159 Freedom Ave","zip":10314,"price":699998.0,"lat":40.595314,"lng":-74.162829,"beds":3,"baths":2.0,"type":"Townhouse for sale"},{"address":"20 Continental Ave Unit 5EF","zip":11375,"price":1088000.0,"lat":40.7186,"lng":-73.845349,"beds":5,"baths":2.0,"type":"Co-op for sale"},{"address":"3426 Boller Ave","zip":10475,"price":999000.0,"lat":40.880817,"lng":-73.835083,"beds":6,"baths":2.0,"type":"House for sale"},{"address":"677 Grandview Ave","zip":11385,"price":1188888.0,"lat":40.707555,"lng":-73.903696,"beds":15,"baths":9.0,"type":"Multi-family home for sale"},{"address":"23-45 Bell Blvd Unit 5K","zip":11360,"price":265000.0,"lat":40.78245,"lng":-73.77651,"beds":1,"baths":1.0,"type":"Co-op for sale"},{"address":"3901 Nostrand Ave Apt 4C","zip":11235,"price":288000.0,"lat":40.589483,"lng":-73.939537,"beds":1,"baths":1.0,"type":"Co-op for sale"},{"address":"205 E 63rd St Unit 11EF","zip":10065,"price":999995.0,"lat":40.76405,"lng":-73.964336,"beds":3,"baths":2.0,"type":"Co-op for sale"},{"address":"200 E 74th St Apt 6B","zip":10021,"price":1495000.0,"lat":40.77082,"lng":-73.959524,"beds":2,"baths":2.0,"type":"Co-op for sale"},{"address":"235 E 73rd St # 4B","zip":10021,"price":925000.0,"lat":40.769942,"lng":-73.958356,"beds":1,"baths":1.0,"type":"Co-op for sale"},{"address":"84-70 129 St N Unit 5U","zip":11415,"price":349000.0,"lat":40.705036,"lng":-73.82417,"beds":2,"baths":1.0,"type":"Co-op for sale"},{"address":"444 E 57th St Apt 2D","zip":10022,"price":2000000.0,"lat":40.757348,"lng":-73.961491,"beds":4,"baths":4.0,"type":"Condo for sale"},{"address":"8895 26th Ave Apt 5A","zip":11214,"price":839000.0,"lat":40.590545,"lng":-73.99104,"beds":3,"baths":2.0,"type":"Condo for sale"},{"address":"111-39 76th Rd Unit E6","zip":11375,"price":329000.0,"lat":40.71574,"lng":-73.83672,"beds":1,"baths":1.0,"type":"Co-op for sale"},{"address":"948 E 217th St","zip":10469,"price":899000.0,"lat":40.879614,"lng":-73.856153,"beds":6,"baths":3.0,"type":"Multi-family home for sale"},{"address":"534 Powell St","zip":11212,"price":615000.0,"lat":40.661046,"lng":-73.901995,"beds":3,"baths":2.0,"type":"House for sale"},{"address":"309 E 108th St Apt 5F","zip":10029,"price":800000.0,"lat":40.791778,"lng":-73.94062,"beds":2,"baths":2.0,"type":"Condo for sale"},{"address":"527 Willow Rd E Unit 2","zip":10314,"price":430000.0,"lat":40.612387,"lng":-74.151129,"beds":2,"baths":2.0,"type":"Condo for sale"},{"address":"625 Goethals Rd N","zip":10314,"price":499000.0,"lat":40.616687,"lng":-74.157665,"beds":3,"baths":2.0,"type":"Contingent"},{"address":"83-80 118th St Unit 3O","zip":11415,"price":439500.0,"lat":40.704788,"lng":-73.834455,"beds":3,"baths":2.0,"type":"Co-op for sale"},{"address":"118-18 Union Tpke Unit 17G","zip":11415,"price":299000.0,"lat":40.712399,"lng":-73.83393,"beds":1,"baths":1.0,"type":"Co-op for sale"},{"address":"60 Lyman Pl","zip":10304,"price":2580000.0,"lat":40.605069,"lng":-74.096948,"beds":8,"baths":2.3738608579684373,"type":"House for sale"},{"address":"1700 Metropolitan Ave Apt Mh","zip":10462,"price":200000.0,"lat":40.840459,"lng":-73.854204,"beds":1,"baths":1.0,"type":"Condo for sale"},{"address":"504 W 135th St Apt 1B","zip":10031,"price":425000.0,"lat":40.818989,"lng":-73.953108,"beds":3,"baths":1.0,"type":"Co-op for sale"},{"address":"1185 Anderson Ave Apt 2E","zip":10452,"price":69000.0,"lat":40.836662,"lng":-73.923959,"beds":1,"baths":1.0,"type":"Co-op for sale"},{"address":"272 W 107th St Apt 8D","zip":10025,"price":1995000.0,"lat":40.801855,"lng":-73.967288,"beds":3,"baths":2.0,"type":"Condo for sale"},{"address":"255 W 108th St Apt 1F","zip":10025,"price":230000.0,"lat":40.802842,"lng":-73.967023,"beds":1,"baths":1.0,"type":"Co-op for sale"},{"address":"82-35 134th St Unit 2D","zip":11435,"price":220000.0,"lat":40.713014,"lng":-73.823037,"beds":1,"baths":1.0,"type":"Co-op for sale"},{"address":"42-40 Bowne St Unit 6F","zip":11355,"price":198000.0,"lat":40.756144,"lng":-73.821367,"beds":3,"baths":1.0,"type":"Co-op for sale"},{"address":"48 Gramercy Park N Apt 1B","zip":10010,"price":1495000.0,"lat":40.738288,"lng":-73.985184,"beds":1,"baths":2.0,"type":"Co-op for sale"},{"address":"520 E 90th St Apt 1L","zip":10128,"price":475000.0,"lat":40.777997,"lng":-73.944534,"beds":1,"baths":1.0,"type":"Co-op for sale"},{"address":"234-04 131 Ave Unit 2","zip":11422,"price":199900.0,"lat":40.677905,"lng":-73.733881,"beds":2,"baths":1.0,"type":"Co-op for sale"},{"address":"91 Flagg Ct","zip":10304,"price":1150000.0,"lat":40.588251,"lng":-74.108729,"beds":2,"baths":2.0,"type":"House for sale"},{"address":"530 4th St","zip":11215,"price":1575000.0,"lat":40.668395,"lng":-73.976219,"beds":3,"baths":2.0,"type":"House for sale"},{"address":"33-05 92nd St Unit 1B","zip":11372,"price":229000.0,"lat":40.756279,"lng":-73.875805,"beds":1,"baths":1.0,"type":"Co-op for sale"},{"address":"122 Willoughby Ave","zip":11205,"price":2700000.0,"lat":40.691484,"lng":-73.967643,"beds":8,"baths":4.0,"type":"For sale"},{"address":"1860 Story Ave Unit 36C","zip":10473,"price":320000.0,"lat":40.823686,"lng":-73.861131,"beds":2,"baths":2.0,"type":"Condo for sale"},{"address":"1275 E 5th St Apt 6A","zip":11230,"price":295000.0,"lat":40.619639,"lng":-73.970731,"beds":2,"baths":1.0,"type":"Co-op for sale"},{"address":"4211 Snyder Ave","zip":11203,"price":550000.0,"lat":40.649876,"lng":-73.937509,"beds":3,"baths":2.0,"type":"House for sale"},{"address":"1439 Metropolitan Ave Apt 6A","zip":10462,"price":285000.0,"lat":40.836227,"lng":-73.861235,"beds":2,"baths":1.0,"type":"Condo for sale"},{"address":"83-30 Vietor Ave Unit 414","zip":11373,"price":328000.0,"lat":40.743059,"lng":-73.880983,"beds":1,"baths":1.0,"type":"Co-op for sale"},{"address":"25-02 169th St","zip":11358,"price":1388000.0,"lat":40.774158,"lng":-73.795748,"beds":4,"baths":3.0,"type":"Multi-family home for sale"},{"address":"120 Pierrepont St","zip":11201,"price":3000000.0,"lat":40.694932,"lng":-73.992854,"beds":10,"baths":10.0,"type":"Multi-family home for sale"},{"address":"662 Seneca Ave","zip":11385,"price":2198888.0,"lat":40.70327,"lng":-73.908846,"beds":7,"baths":6.0,"type":"Multi-family home for sale"},{"address":"936 Taylor Ave","zip":10473,"price":650000.0,"lat":40.824436,"lng":-73.863374,"beds":6,"baths":2.0,"type":"Multi-family home for sale"},{"address":"247 W 46th St Apt 1506","zip":10036,"price":1100000.0,"lat":40.759854,"lng":-73.987443,"beds":1,"baths":2.0,"type":"Condo for sale"},{"address":"282 Macon St","zip":11216,"price":2649000.0,"lat":40.682092,"lng":-73.939392,"beds":5,"baths":4.0,"type":"Townhouse for sale"},{"address":"299 13th St Apt 3D","zip":11215,"price":849000.0,"lat":40.66626,"lng":-73.987014,"beds":2,"baths":1.0,"type":"Co-op for sale"},{"address":"995 Fifth Ave Apt 11N","zip":10028,"price":6500000.0,"lat":40.778004,"lng":-73.962547,"beds":2,"baths":2.0,"type":"For sale"},{"address":"165 W End Ave Apt 16C","zip":10023,"price":560000.0,"lat":40.777244,"lng":-73.986874,"beds":3,"baths":1.0,"type":"Co-op for sale"},{"address":"247 W 46th St Apt 1506","zip":10036,"price":1100000.0,"lat":40.759854,"lng":-73.987443,"beds":1,"baths":2.0,"type":"Condo for sale"},{"address":"282 Macon St","zip":11216,"price":2649000.0,"lat":40.682092,"lng":-73.939392,"beds":5,"baths":4.0,"type":"Townhouse for sale"},{"address":"299 13th St Apt 3D","zip":11215,"price":849000.0,"lat":40.66626,"lng":-73.987014,"beds":2,"baths":1.0,"type":"Co-op for sale"},{"address":"946 59th St Apt 4B","zip":11219,"price":418888.0,"lat":40.633912,"lng":-74.005843,"beds":2,"baths":1.0,"type":"Co-op for sale"},{"address":"99 Bay 11th St","zip":11228,"price":2600000.0,"lat":40.608391,"lng":-74.010021,"beds":3,"baths":3.0,"type":"Multi-family home for sale"},{"address":"3214 Seymour Ave","zip":10469,"price":899000.0,"lat":40.872808,"lng":-73.846949,"beds":8,"baths":2.0,"type":"Multi-family home for sale"},{"address":"309 E 96th St","zip":11212,"price":979000.0,"lat":40.659713,"lng":-73.919598,"beds":8,"baths":3.0,"type":"Multi-family home for sale"},{"address":"67-38 108 St Unit D5","zip":11375,"price":199000.0,"lat":40.72829,"lng":-73.8472,"beds":1,"baths":1.0,"type":"Co-op for sale"},{"address":"310 E 46th St Apt 6S","zip":10017,"price":815000.0,"lat":40.751918,"lng":-73.969833,"beds":3,"baths":1.0,"type":"For sale"},{"address":"460 E 79th St Apt 9F","zip":10075,"price":1025000.0,"lat":40.771254,"lng":-73.950858,"beds":1,"baths":1.0,"type":"Condo for sale"},{"address":"188 E 64th St Apt 802","zip":10065,"price":1375000.0,"lat":40.764503,"lng":-73.96485,"beds":1,"baths":2.0,"type":"Condo for sale"},{"address":"105 Bennett Ave Apt 21A","zip":10033,"price":875000.0,"lat":40.853953,"lng":-73.934568,"beds":3,"baths":2.0,"type":"Condo for sale"},{"address":"2535 E 24th St","zip":11235,"price":1350000.0,"lat":40.590265,"lng":-73.945506,"beds":6,"baths":3.0,"type":"Multi-family home for sale"},{"address":"1408 Remsen Ave","zip":11236,"price":989000.0,"lat":40.636096,"lng":-73.90183,"beds":7,"baths":3.0,"type":"For sale"},{"address":"156 Davis Ave","zip":10310,"price":815156.0,"lat":40.640266,"lng":-74.110402,"beds":4,"baths":4.0,"type":"Multi-family home for sale"},{"address":"11 Brighton 10th Path","zip":11235,"price":1949000.0,"lat":40.581337,"lng":-73.958928,"beds":3,"baths":5.0,"type":"Multi-family home for sale"},{"address":"418 Beach 37th St","zip":11691,"price":669000.0,"lat":40.596715,"lng":-73.769642,"beds":5,"baths":2.0,"type":"Multi-family home for sale"},{"address":"10716 Avenue J","zip":11236,"price":900500.0,"lat":40.646887,"lng":-73.890776,"beds":4,"baths":2.0,"type":"Multi-family home for sale"},{"address":"215 E 73rd St Unit 4A","zip":10021,"price":1465000.0,"lat":40.770191,"lng":-73.959012,"beds":3,"baths":3.0,"type":"Co-op for sale"},{"address":"529 W 42nd St Apt 2G","zip":10036,"price":899000.0,"lat":40.760419,"lng":-73.996809,"beds":3,"baths":1.0,"type":"For sale"},{"address":"88 Greenwich St Apt 2307","zip":10006,"price":1100000.0,"lat":40.707884,"lng":-74.014088,"beds":1,"baths":1.0,"type":"Condo for sale"},{"address":"151-42 82nd St","zip":11414,"price":1199000.0,"lat":40.666204,"lng":-73.852503,"beds":6,"baths":5.0,"type":"Multi-family home for sale"},{"address":"12 W 107th St Apt 2B","zip":10025,"price":325000.0,"lat":40.798904,"lng":-73.960481,"beds":2,"baths":1.0,"type":"For sale"},{"address":"3100 Richmond Ter","zip":10303,"price":599000.0,"lat":40.638069,"lng":-74.162775,"beds":4,"baths":3.0,"type":"Multi-family home for sale"},{"address":"74-06 64th Ln","zip":11385,"price":1230000.0,"lat":40.700194,"lng":-73.890749,"beds":4,"baths":3.0,"type":"Multi-family home for sale"},{"address":"2 Sutton Pl S Apt 19F","zip":10022,"price":3950000.0,"lat":40.757395,"lng":-73.960655,"beds":3,"baths":3.0,"type":"Co-op for sale"},{"address":"188 Richmond St","zip":11208,"price":1350000.0,"lat":40.682854,"lng":-73.876997,"beds":10,"baths":5.0,"type":"Multi-family home for sale"},{"address":"1124 E 51st St","zip":11234,"price":799000.0,"lat":40.633613,"lng":-73.927604,"beds":5,"baths":3.0,"type":"House for sale"},{"address":"1233 Todt Hill Rd","zip":10304,"price":1599000.0,"lat":40.581376,"lng":-74.113191,"beds":5,"baths":3.0,"type":"House for sale"},{"address":"346 George St","zip":10307,"price":1299900.0,"lat":40.506592,"lng":-74.23935,"beds":4,"baths":4.0,"type":"House for sale"},{"address":"100 Remsen St Apt 3F","zip":11201,"price":370000.0,"lat":40.693958,"lng":-73.99437,"beds":1,"baths":1.0,"type":"Co-op for sale"},{"address":"635 W 170th St Apt 2C","zip":10032,"price":3225.0,"lat":40.843406,"lng":-73.940795,"beds":3,"baths":1.0,"type":"For sale"},{"address":"11 W 30th St Apt 11F","zip":10001,"price":3649000.0,"lat":40.746468,"lng":-73.987299,"beds":3,"baths":2.0,"type":"Co-op for sale"},{"address":"3743 Neptune Ave","zip":11224,"price":860000.0,"lat":40.576894,"lng":-74.004879,"beds":5,"baths":3.0,"type":"Multi-family home for sale"},{"address":"80 Longview Rd","zip":10304,"price":765000.0,"lat":40.611142,"lng":-74.090536,"beds":3,"baths":4.0,"type":"House for sale"},{"address":"3500 Snyder Ave Apt 5N","zip":11203,"price":259000.0,"lat":40.64912,"lng":-73.944066,"beds":1,"baths":1.0,"type":"Co-op for sale"},{"address":"1601 Nostrand Ave","zip":11226,"price":1500000.0,"lat":40.647148,"lng":-73.948942,"beds":8,"baths":3.0,"type":"Multi-family home for sale"},{"address":"340 Cabrini Blvd Apt 501","zip":10040,"price":850000.0,"lat":40.856444,"lng":-73.937762,"beds":2,"baths":2.0,"type":"Condo for sale"},{"address":"635 W 170th St Apt 4F","zip":10032,"price":2494.0,"lat":40.843406,"lng":-73.940795,"beds":2,"baths":1.0,"type":"For sale"},{"address":"1368 E 92nd St Unit 300","zip":11236,"price":99000.0,"lat":40.637254,"lng":-73.900267,"beds":1,"baths":1.0,"type":"Condo for sale"},{"address":"192 E 8th St Apt 1C","zip":11218,"price":535000.0,"lat":40.645301,"lng":-73.972305,"beds":1,"baths":1.0,"type":"Co-op for sale"},{"address":"358 Lamoka Ave","zip":10312,"price":849998.0,"lat":40.548777,"lng":-74.162925,"beds":4,"baths":2.0,"type":"Multi-family home for sale"},{"address":"2235 Frederick Douglass Blvd Apt 7K","zip":10027,"price":1100000.0,"lat":40.807426,"lng":-73.95357,"beds":2,"baths":2.0,"type":"For sale"},{"address":"60-17 59th Ave","zip":11378,"price":998000.0,"lat":40.719086,"lng":-73.906091,"beds":5,"baths":3.0,"type":"Multi-family home for sale"},{"address":"3115 Glenwood Rd","zip":11210,"price":1500000.0,"lat":40.634316,"lng":-73.946292,"beds":3,"baths":2.0,"type":"Multi-family home for sale"},{"address":"1779 Edenwald Ave","zip":10466,"price":875000.0,"lat":40.892096,"lng":-73.848736,"beds":6,"baths":3.0,"type":"Multi-family home for sale"},{"address":"456 W 19th St Units 4 & 5C","zip":10011,"price":2350000.0,"lat":40.744926,"lng":-74.005718,"beds":1,"baths":2.0,"type":"Condo for sale"},{"address":"4346 Edson Ave","zip":10466,"price":850000.0,"lat":40.897927,"lng":-73.846306,"beds":5,"baths":2.0,"type":"Multi-family home for sale"},{"address":"445 Lafayette St Apt 14A","zip":10003,"price":4000000.0,"lat":40.729541,"lng":-73.991307,"beds":3,"baths":2.3738608579684373,"type":"For sale"},{"address":"955 Lexington Ave Unit 5C","zip":10021,"price":1200000.0,"lat":40.768754,"lng":-73.963131,"beds":3,"baths":2.0,"type":"Co-op for sale"},{"address":"67 Franklin St # A","zip":10013,"price":12000000.0,"lat":40.717458,"lng":-74.003883,"beds":4,"baths":4.0,"type":"Condo for sale"},{"address":"269 W 87th St Apt 6C","zip":10024,"price":1300000.0,"lat":40.789503,"lng":-73.976971,"beds":2,"baths":2.0,"type":"Co-op for sale"},{"address":"240 Riverside Blvd Apt 3P","zip":10069,"price":799000.0,"lat":40.780472,"lng":-73.987143,"beds":3,"baths":1.0,"type":"For sale"},{"address":"314 E 41st St Apt 303B","zip":10017,"price":339000.0,"lat":40.748888,"lng":-73.972395,"beds":3,"baths":1.0,"type":"Co-op for sale"},{"address":"1126 Ward Ave","zip":10472,"price":875000.0,"lat":40.82701,"lng":-73.876628,"beds":7,"baths":5.0,"type":"Multi-family home for sale"},{"address":"1341 Fteley Ave","zip":10472,"price":799000.0,"lat":40.833393,"lng":-73.872791,"beds":7,"baths":2.0,"type":"Multi-family home for sale"},{"address":"1341 Fteley Ave","zip":10472,"price":799000.0,"lat":40.833393,"lng":-73.872791,"beds":7,"baths":2.0,"type":"Multi-family home for sale"},{"address":"102-15 215 St","zip":11429,"price":285000.0,"lat":40.712833,"lng":-73.743578,"beds":2,"baths":1.0,"type":"House for sale"},{"address":"181 Park Ave","zip":11205,"price":2499000.0,"lat":40.696296,"lng":-73.97205,"beds":5,"baths":4.0,"type":"Multi-family home for sale"},{"address":"42 Adrian Ave","zip":10463,"price":795000.0,"lat":40.876739,"lng":-73.911189,"beds":4,"baths":2.0,"type":"Townhouse for sale"},{"address":"207 E 74th St Unit 8M","zip":10021,"price":1799995.0,"lat":40.770893,"lng":-73.958626,"beds":2,"baths":2.0,"type":"Co-op for sale"},{"address":"164-31 99 St","zip":11414,"price":250000.0,"lat":40.650553,"lng":-73.831674,"beds":3,"baths":2.3738608579684373,"type":"House for sale"},{"address":"220 Riverside Blvd Apt 24G","zip":10069,"price":5999000.0,"lat":40.779857,"lng":-73.987397,"beds":3,"baths":3.0,"type":"For sale"},{"address":"88-08 Gettysburg St","zip":11426,"price":668000.0,"lat":40.729979,"lng":-73.731076,"beds":3,"baths":2.0,"type":"Pending"},{"address":"102 Lamberts Ln","zip":10314,"price":699900.0,"lat":40.615395,"lng":-74.161085,"beds":3,"baths":2.0,"type":"House for sale"},{"address":"75 2nd Pl","zip":11231,"price":5295000.0,"lat":40.680007,"lng":-73.998211,"beds":4,"baths":4.0,"type":"Townhouse for sale"},{"address":"252 South St Unit 26L","zip":10002,"price":2265000.0,"lat":40.710456,"lng":-73.991235,"beds":2,"baths":2.0,"type":"Condo for sale"},{"address":"142-05 Roosevelt Ave Unit 435","zip":11354,"price":459000.0,"lat":40.760794,"lng":-73.825877,"beds":2,"baths":1.0,"type":"Co-op for sale"},{"address":"7 Stalie Ct","zip":10309,"price":1369000.0,"lat":40.523972,"lng":-74.221341,"beds":4,"baths":2.3738608579684373,"type":"Multi-family home for sale"},{"address":"87-45 253rd St","zip":11426,"price":879000.0,"lat":40.729437,"lng":-73.712559,"beds":4,"baths":2.0,"type":"House for sale"},{"address":"161 E 110th St Apt 6G","zip":10029,"price":559000.0,"lat":40.794574,"lng":-73.943421,"beds":1,"baths":1.0,"type":"Condo for sale"},{"address":"86-27 125th St","zip":11418,"price":869888.0,"lat":40.701901,"lng":-73.825678,"beds":4,"baths":3.0,"type":"Multi-family home for sale"},{"address":"62-24 65 St","zip":11379,"price":799888.0,"lat":40.713898,"lng":-73.897023,"beds":3,"baths":2.0,"type":"House for sale"},{"address":"29 Canterbury Ave","zip":10314,"price":749000.0,"lat":40.616535,"lng":-74.150719,"beds":4,"baths":1.0,"type":"House for sale"},{"address":"119-44 193rd St","zip":11412,"price":499000.0,"lat":40.6886,"lng":-73.756807,"beds":2,"baths":3.0,"type":"House for sale"},{"address":"269 W 87th St Apt 7B","zip":10024,"price":1295000.0,"lat":40.789503,"lng":-73.976971,"beds":3,"baths":4.0,"type":"House for sale"},{"address":"640 Sheldon Ave","zip":10312,"price":879900.0,"lat":40.540908,"lng":-74.196494,"beds":3,"baths":2.0,"type":"Pending"},{"address":"8 Magnolia Pl # 8","zip":10465,"price":400000.0,"lat":40.813143,"lng":-73.808397,"beds":2,"baths":2.0,"type":"Co-op for sale"},{"address":"1839 Andrews Ave","zip":10453,"price":699999.0,"lat":40.852495,"lng":-73.91514,"beds":6,"baths":2.3738608579684373,"type":"Multi-family home for sale"},{"address":"1065 Vermont St Apt 4G","zip":11207,"price":289000.0,"lat":40.654162,"lng":-73.884678,"beds":1,"baths":1.0,"type":"Condo for sale"},{"address":"435 Tompkins Ave Unit 305","zip":11216,"price":699000.0,"lat":40.682648,"lng":-73.943492,"beds":1,"baths":1.0,"type":"Condo for sale"},{"address":"4515 Avenue N Lot 5","zip":11234,"price":5800.0,"lat":40.618915,"lng":-73.931211,"beds":3,"baths":2.3738608579684373,"type":"Land for sale"},{"address":"16 Renfrew Pl","zip":10303,"price":479000.0,"lat":40.62683,"lng":-74.147141,"beds":6,"baths":2.0,"type":"Foreclosure"},{"address":"435 Tompkins Ave Unit 703","zip":11216,"price":1355000.0,"lat":40.682648,"lng":-73.943492,"beds":2,"baths":2.0,"type":"Condo for sale"},{"address":"435 Tompkins Ave Unit 602","zip":11216,"price":1225000.0,"lat":40.682648,"lng":-73.943492,"beds":2,"baths":2.0,"type":"Condo for sale"},{"address":"960 Park Ave Units 3W & 4C","zip":10028,"price":9999000.0,"lat":40.77795,"lng":-73.959448,"beds":4,"baths":6.0,"type":"Foreclosure"},{"address":"2191 Bolton St Apt 5E","zip":10462,"price":105000.0,"lat":40.85607,"lng":-73.868875,"beds":3,"baths":1.0,"type":"Co-op for sale"},{"address":"5423 Avenue M","zip":11234,"price":300000.0,"lat":40.616292,"lng":-73.929914,"beds":3,"baths":1.0,"type":"House for sale"},{"address":"232 Throggs Neck Blvd","zip":10465,"price":799000.0,"lat":40.818184,"lng":-73.812739,"beds":5,"baths":3.0,"type":"Multi-family home for sale"},{"address":"18-70 211 St Unit 2A","zip":11360,"price":202000.0,"lat":40.780281,"lng":-73.781891,"beds":2,"baths":1.0,"type":"Co-op for sale"},{"address":"190 Chestnut Ave","zip":10305,"price":720000.0,"lat":40.614956,"lng":-74.074555,"beds":3,"baths":2.0,"type":"Contingent"},{"address":"392 E 7th St","zip":11218,"price":600000.0,"lat":40.642296,"lng":-73.972787,"beds":5,"baths":2.0,"type":"House for sale"},{"address":"7901 4th Ave Apt F7","zip":11209,"price":599000.0,"lat":40.627935,"lng":-74.026015,"beds":3,"baths":1.0,"type":"Co-op for sale"},{"address":"162 Arlo Rd Unit A","zip":10301,"price":235000.0,"lat":40.619276,"lng":-74.09515,"beds":2,"baths":1.0,"type":"Condo for sale"},{"address":"58-42 251st St Unit 190","zip":11362,"price":319000.0,"lat":40.759859,"lng":-73.729009,"beds":3,"baths":1.0,"type":"Co-op for sale"},{"address":"18-29 George St","zip":11385,"price":950000.0,"lat":40.700015,"lng":-73.901008,"beds":12,"baths":6.0,"type":"Multi-family home for sale"},{"address":"15-03 201st St","zip":11360,"price":1088888.0,"lat":40.786079,"lng":-73.792852,"beds":4,"baths":2.0,"type":"Multi-family home for sale"},{"address":"24 Gianna Ct","zip":10306,"price":1250000.0,"lat":40.567549,"lng":-74.140764,"beds":4,"baths":4.0,"type":"House for sale"},{"address":"2998 Fulton St","zip":11208,"price":650000.0,"lat":40.67992,"lng":-73.883996,"beds":3,"baths":2.3738608579684373,"type":"Land for sale"},{"address":"417 Genesee Ave","zip":10312,"price":774888.0,"lat":40.552558,"lng":-74.170901,"beds":3,"baths":2.0,"type":"House for sale"},{"address":"60 Knolls Cres Apt 8F","zip":10463,"price":105509.0,"lat":40.879078,"lng":-73.91752,"beds":1,"baths":1.0,"type":"Co-op for sale"},{"address":"544 Madison St","zip":11221,"price":995000.0,"lat":40.686229,"lng":-73.936422,"beds":5,"baths":2.0,"type":"Multi-family home for sale"},{"address":"544 Madison St","zip":11221,"price":995000.0,"lat":40.686229,"lng":-73.936422,"beds":5,"baths":2.0,"type":"Multi-family home for sale"},{"address":"4322 E Tremont Ave","zip":10465,"price":769000.0,"lat":40.815203,"lng":-73.815497,"beds":4,"baths":2.0,"type":"House for sale"},{"address":"5601 Riverdale Ave Apt 2B","zip":10471,"price":395995.0,"lat":40.904882,"lng":-73.905111,"beds":2,"baths":1.0,"type":"Co-op for sale"},{"address":"235 E 55th St Apt 45B","zip":10022,"price":975000.0,"lat":40.758569,"lng":-73.966971,"beds":1,"baths":2.0,"type":"For sale"},{"address":"616 City Island Ave","zip":10464,"price":499999.0,"lat":40.854943,"lng":-73.79083,"beds":2,"baths":1.0,"type":"House for sale"},{"address":"165 W End Ave Apt 7N","zip":10023,"price":1649000.0,"lat":40.777244,"lng":-73.986874,"beds":2,"baths":2.0,"type":"Co-op for sale"},{"address":"83-40 Austin St Unit 3E","zip":11415,"price":365000.0,"lat":40.70838,"lng":-73.82901,"beds":2,"baths":1.0,"type":"Co-op for sale"},{"address":"122 North Dr","zip":10305,"price":748999.0,"lat":40.606691,"lng":-74.072409,"beds":3,"baths":2.0,"type":"Pending"},{"address":"118-14 201st Pl","zip":11412,"price":635000.0,"lat":40.693353,"lng":-73.750337,"beds":3,"baths":2.0,"type":"House for sale"},{"address":"87 Saint Marks Pl Apt 4C","zip":10009,"price":149000.0,"lat":40.72762,"lng":-73.984891,"beds":3,"baths":1.0,"type":"Co-op for sale"},{"address":"84-11 165th Ave","zip":11414,"price":1099000.0,"lat":40.648194,"lng":-73.845237,"beds":5,"baths":2.0,"type":"House for sale"},{"address":"750 Barclay Ave","zip":10312,"price":3950000.0,"lat":40.525422,"lng":-74.166603,"beds":3,"baths":2.3738608579684373,"type":"Land for sale"},{"address":"116-25 134th St","zip":11420,"price":1529999.0,"lat":40.678048,"lng":-73.805618,"beds":6,"baths":5.0,"type":"Multi-family home for sale"},{"address":"44 Hunter Pl","zip":10301,"price":675000.0,"lat":40.633351,"lng":-74.102133,"beds":3,"baths":1.0,"type":"House for sale"},{"address":"87-07 158th Ave","zip":11414,"price":2650000.0,"lat":40.660323,"lng":-73.845593,"beds":6,"baths":6.0,"type":"House for sale"},{"address":"90-07 107th Ave","zip":11417,"price":420000.0,"lat":40.678476,"lng":-73.847686,"beds":3,"baths":1.0,"type":"House for sale"},{"address":"9115-9119 Bedell Ln","zip":11236,"price":2999950.0,"lat":40.644412,"lng":-73.910039,"beds":3,"baths":2.3738608579684373,"type":"Land for sale"},{"address":"18 Navigator Ct","zip":10309,"price":559900.0,"lat":40.513234,"lng":-74.195975,"beds":3,"baths":2.0,"type":"Townhouse for sale"},{"address":"122-04 115th Ave","zip":11420,"price":549000.0,"lat":40.677681,"lng":-73.816646,"beds":3,"baths":1.0,"type":"House for sale"},{"address":"13617 Carlton Pl","zip":11354,"price":999000.0,"lat":40.764463,"lng":-73.829753,"beds":3,"baths":2.0,"type":"Land for sale"},{"address":"633 Mead St","zip":10460,"price":289000.0,"lat":40.842629,"lng":-73.866597,"beds":3,"baths":2.3738608579684373,"type":"Land for sale"},{"address":"1815 College Point Blvd","zip":11356,"price":790000.0,"lat":40.78271,"lng":-73.845769,"beds":3,"baths":2.3738608579684373,"type":"Land for sale"},{"address":"235 W 138th St","zip":10030,"price":2295000.0,"lat":40.818037,"lng":-73.943686,"beds":7,"baths":4.0,"type":"House for sale"},{"address":"335 Preston Ave","zip":10312,"price":1150000.0,"lat":40.534397,"lng":-74.158287,"beds":3,"baths":4.0,"type":"House for sale"},{"address":"18 Prospect Park W","zip":11215,"price":13995000.0,"lat":40.671253,"lng":-73.971651,"beds":7,"baths":2.3738608579684373,"type":"Townhouse for sale"},{"address":"1518 Pitkin Ave","zip":11212,"price":6100000.0,"lat":40.668519,"lng":-73.917592,"beds":3,"baths":2.3738608579684373,"type":"Land for sale"},{"address":"2532 Atlantic Ave","zip":11207,"price":350000.0,"lat":40.675318,"lng":-73.900859,"beds":3,"baths":2.3738608579684373,"type":"Land for sale"},{"address":"9 Alderbrook Rd","zip":10471,"price":450000.0,"lat":40.89582,"lng":-73.911077,"beds":3,"baths":2.3738608579684373,"type":"Land for sale"},{"address":"153-10 89th Ave","zip":11432,"price":2999999.0,"lat":40.705144,"lng":-73.803005,"beds":3,"baths":2.3738608579684373,"type":"Land for sale"},{"address":"238 Ocean View Ave","zip":11235,"price":2500000.0,"lat":40.578639,"lng":-73.965449,"beds":3,"baths":2.3738608579684373,"type":"Land for sale"},{"address":"8 Lake Ave","zip":11235,"price":350000.0,"lat":40.584411,"lng":-73.938037,"beds":3,"baths":2.3738608579684373,"type":"Land for sale"},{"address":"40 Cedarcliff Rd","zip":10301,"price":150000.0,"lat":40.617154,"lng":-74.08905,"beds":3,"baths":2.3738608579684373,"type":"Land for sale"},{"address":"1348 E 7th St","zip":11230,"price":3600000.0,"lat":40.617964,"lng":-73.96817,"beds":3,"baths":2.3738608579684373,"type":"Land for sale"},{"address":"48 Cedarcliff Rd","zip":10301,"price":150000.0,"lat":40.617027,"lng":-74.089319,"beds":3,"baths":2.3738608579684373,"type":"Land for sale"},{"address":"143-50 Hoover Ave Unit 307","zip":11435,"price":235000.0,"lat":40.71423,"lng":-73.8152,"beds":3,"baths":2.0,"type":"Co-op for sale"},{"address":"164th Dr","zip":11414,"price":199000.0,"lat":40.651154,"lng":-73.828415,"beds":3,"baths":2.3738608579684373,"type":"Land for sale"},{"address":"2090 Arthur Ave","zip":10457,"price":2000000.0,"lat":40.849232,"lng":-73.891404,"beds":3,"baths":2.3738608579684373,"type":"Land for sale"},{"address":"75-43 113th St","zip":11375,"price":2200000.0,"lat":40.718513,"lng":-73.834819,"beds":3,"baths":2.3738608579684373,"type":"Land for sale"},{"address":"31-42 41st St","zip":11103,"price":650000.0,"lat":40.759972,"lng":-73.917387,"beds":3,"baths":2.3738608579684373,"type":"Land for sale"},{"address":"644 Jefferson Ave","zip":10306,"price":149000.0,"lat":40.574263,"lng":-74.086609,"beds":3,"baths":2.3738608579684373,"type":"Land for sale"},{"address":"408 Van Siclen Ave","zip":11207,"price":215000.0,"lat":40.669498,"lng":-73.889753,"beds":4,"baths":2.0,"type":"House for sale"},{"address":"1905 Fulton St","zip":11233,"price":799999.0,"lat":40.678958,"lng":-73.920319,"beds":3,"baths":2.3738608579684373,"type":"Land for sale"},{"address":"219 Beach 44 St","zip":11691,"price":299000.0,"lat":40.593404,"lng":-73.775651,"beds":5,"baths":2.0,"type":"House for sale"},{"address":"1698 E New York Ave","zip":11212,"price":265000.0,"lat":40.674341,"lng":-73.905624,"beds":3,"baths":2.3738608579684373,"type":"Land for sale"},{"address":"1761 Topping Ave","zip":10457,"price":795000.0,"lat":40.845752,"lng":-73.905968,"beds":3,"baths":2.3738608579684373,"type":"Land for sale"},{"address":"5437 Fieldston Rd","zip":10471,"price":1245000.0,"lat":40.902657,"lng":-73.901871,"beds":3,"baths":2.3738608579684373,"type":"Land for sale"},{"address":"1385 Dekalb Ave","zip":11221,"price":549000.0,"lat":40.699454,"lng":-73.924234,"beds":3,"baths":2.3738608579684373,"type":"Land for sale"},{"address":"378 W End Ave Apt 4A","zip":10024,"price":7495000.0,"lat":40.783332,"lng":-73.98158,"beds":4,"baths":4.0,"type":"Condo for sale"},{"address":"30-53 35th St","zip":11103,"price":2850000.0,"lat":40.763924,"lng":-73.919058,"beds":4,"baths":4.0,"type":"Townhouse for sale"},{"address":"127C Edgewater Park Unit C","zip":10465,"price":215000.0,"lat":40.823327,"lng":-73.811012,"beds":2,"baths":2.0,"type":"Co-op for sale"},{"address":"621 E 87th St","zip":11236,"price":299000.0,"lat":40.641596,"lng":-73.910596,"beds":3,"baths":2.3738608579684373,"type":"Land for sale"},{"address":"3009 Coddington Ave","zip":10461,"price":275000.0,"lat":40.840982,"lng":-73.829294,"beds":2,"baths":1.0,"type":"House for sale"},{"address":"15 Spratt Ave","zip":10306,"price":898000.0,"lat":40.558697,"lng":-74.1351,"beds":6,"baths":3.0,"type":"Multi-family home for sale"},{"address":"1910 Pelham Pkwy S Apt 2A","zip":10461,"price":275000.0,"lat":40.855476,"lng":-73.828719,"beds":2,"baths":1.0,"type":"Co-op for sale"},{"address":"114-36 Sutter Ave","zip":11420,"price":599000.0,"lat":40.674734,"lng":-73.823975,"beds":4,"baths":2.0,"type":"House for sale"},{"address":"20 Cliff St Apt 5B","zip":10305,"price":189000.0,"lat":40.610959,"lng":-74.060351,"beds":1,"baths":1.0,"type":"Condo for sale"},{"address":"155 Wellbrook Ave","zip":10314,"price":678990.0,"lat":40.601232,"lng":-74.130017,"beds":3,"baths":3.0,"type":"Multi-family home for sale"},{"address":"2660 Mill Ave","zip":11234,"price":800000.0,"lat":40.608799,"lng":-73.912817,"beds":3,"baths":2.0,"type":"House for sale"},{"address":"4 Jamie Ct","zip":10314,"price":549000.0,"lat":40.622111,"lng":-74.149998,"beds":3,"baths":2.0,"type":"Condo for sale"},{"address":"329 Wainwright Ave","zip":10312,"price":849000.0,"lat":40.552849,"lng":-74.169938,"beds":3,"baths":2.0,"type":"House for sale"},{"address":"558 E 34th St","zip":11203,"price":675000.0,"lat":40.642814,"lng":-73.945144,"beds":3,"baths":2.3738608579684373,"type":"Pending"},{"address":"263 South Ave","zip":10303,"price":130000.0,"lat":40.633067,"lng":-74.165948,"beds":3,"baths":2.3738608579684373,"type":"House for sale"},{"address":"91-18 173rd St","zip":11432,"price":759999.0,"lat":40.708375,"lng":-73.787158,"beds":4,"baths":2.0,"type":"House for sale"},{"address":"615 Correll Ave","zip":10309,"price":489000.0,"lat":40.546573,"lng":-74.213449,"beds":2,"baths":1.0,"type":"Contingent"},{"address":"2339 Brigham St","zip":11229,"price":799900.0,"lat":40.595626,"lng":-73.933927,"beds":5,"baths":2.0,"type":"Multi-family home for sale"},{"address":"155-23 79th St Unit 2","zip":11414,"price":295000.0,"lat":40.663347,"lng":-73.85428,"beds":3,"baths":1.0,"type":"Co-op for sale"},{"address":"3531 Bronxwood Ave Apt Stb","zip":10469,"price":159000.0,"lat":40.876205,"lng":-73.860362,"beds":2,"baths":1.0,"type":"Co-op for sale"},{"address":"157-23 16th Rd","zip":11357,"price":999500.0,"lat":40.784332,"lng":-73.804571,"beds":3,"baths":2.0,"type":"House for sale"},{"address":"68 Davis Ave","zip":10310,"price":589000.0,"lat":40.642663,"lng":-74.110851,"beds":3,"baths":2.0,"type":"Contingent"},{"address":"55 Austin Pl Apt 6Z","zip":10304,"price":329000.0,"lat":40.631614,"lng":-74.085895,"beds":2,"baths":1.0,"type":"Condo for sale"},{"address":"431 E 32nd St","zip":11226,"price":799000.0,"lat":40.640289,"lng":-73.946349,"beds":3,"baths":2.0,"type":"House for sale"},{"address":"1268 76th St","zip":11228,"price":1188000.0,"lat":40.619866,"lng":-74.008715,"beds":4,"baths":2.0,"type":"House for sale"},{"address":"1625 Lurting Ave","zip":10461,"price":729000.0,"lat":40.846624,"lng":-73.852091,"beds":3,"baths":2.0,"type":"House for sale"},{"address":"30 Cunard Ave","zip":10304,"price":614900.0,"lat":40.614239,"lng":-74.088413,"beds":3,"baths":2.0,"type":"Contingent"},{"address":"242 E 235th St","zip":10470,"price":599000.0,"lat":40.897247,"lng":-73.868898,"beds":4,"baths":2.0,"type":"House for sale"},{"address":"31-15 102 St","zip":11368,"price":950000.0,"lat":40.760813,"lng":-73.866919,"beds":6,"baths":2.0,"type":"Multi-family home for sale"},{"address":"137 Beach 140th St","zip":11694,"price":11000000.0,"lat":40.570469,"lng":-73.855874,"beds":5,"baths":2.3738608579684373,"type":"Townhouse for sale"},{"address":"952 Olympia Blvd","zip":10306,"price":348000.0,"lat":40.575138,"lng":-74.090531,"beds":3,"baths":2.3738608579684373,"type":"Land for sale"},{"address":"9 Dekalb Ave Unit 54E","zip":11201,"price":965000.0,"lat":40.690385,"lng":-73.982534,"beds":3,"baths":1.0,"type":"Condo for sale"},{"address":"89 Escanaba Ave","zip":10308,"price":1095000.0,"lat":40.550565,"lng":-74.159902,"beds":4,"baths":4.0,"type":"Multi-family home for sale"},{"address":"219 Hudson St Apt 4A","zip":10013,"price":2295000.0,"lat":40.72415,"lng":-74.008081,"beds":2,"baths":2.0,"type":"Condo for sale"},{"address":"112 Waverly Pl","zip":10011,"price":13500000.0,"lat":40.732352,"lng":-73.999336,"beds":5,"baths":7.0,"type":"Pending"},{"address":"150 City Island Ave Unit E3","zip":10464,"price":49500.0,"lat":40.843284,"lng":-73.784603,"beds":3,"baths":2.3738608579684373,"type":"Co-op for sale"},{"address":"26 Durland Pl","zip":11236,"price":460000.0,"lat":40.641648,"lng":-73.906457,"beds":3,"baths":3.0,"type":"House for sale"},{"address":"344 Ashford St","zip":11207,"price":825000.0,"lat":40.673946,"lng":-73.885344,"beds":12,"baths":6.0,"type":"Multi-family home for sale"},{"address":"70-17 Nansen St","zip":11375,"price":1230250.0,"lat":40.712096,"lng":-73.851808,"beds":3,"baths":2.0,"type":"House for sale"},{"address":"2047 E 38th St","zip":11234,"price":799999.0,"lat":40.609915,"lng":-73.928714,"beds":3,"baths":2.0,"type":"House for sale"},{"address":"123-35 82nd Rd Unit 5H","zip":11415,"price":259500.0,"lat":40.712137,"lng":-73.827708,"beds":2,"baths":1.0,"type":"Co-op for sale"},{"address":"3015 Avenue D","zip":11226,"price":1300000.0,"lat":40.641139,"lng":-73.947842,"beds":15,"baths":6.0,"type":"Multi-family home for sale"},{"address":"13-22 208th Pl Unit 1605","zip":11360,"price":749000.0,"lat":40.787492,"lng":-73.785809,"beds":2,"baths":2.0,"type":"Condo for sale"},{"address":"19 Vera St","zip":10305,"price":265000.0,"lat":40.584922,"lng":-74.096878,"beds":2,"baths":1.0,"type":"House for sale"},{"address":"190 Beach 109th St","zip":11694,"price":575000.0,"lat":40.580913,"lng":-73.830201,"beds":2,"baths":1.0,"type":"House for sale"},{"address":"2033 Hobart Ave","zip":10461,"price":849000.0,"lat":40.852813,"lng":-73.831223,"beds":4,"baths":2.0,"type":"Multi-family home for sale"},{"address":"244-89 61st Ave","zip":11362,"price":875000.0,"lat":40.756547,"lng":-73.733972,"beds":2,"baths":2.0,"type":"House for sale"},{"address":"68 Watchogue Rd","zip":10314,"price":599999.0,"lat":40.613911,"lng":-74.133028,"beds":3,"baths":2.0,"type":"House for sale"},{"address":"162-14 97th St","zip":11414,"price":1150000.0,"lat":40.654254,"lng":-73.835056,"beds":5,"baths":3.0,"type":"Multi-family home for sale"},{"address":"139 Atlantic Ave","zip":10304,"price":1188000.0,"lat":40.592971,"lng":-74.093782,"beds":4,"baths":2.3738608579684373,"type":"Pending"},{"address":"241 Westervelt Ave","zip":10301,"price":579900.0,"lat":40.642229,"lng":-74.083044,"beds":3,"baths":2.3738608579684373,"type":"Foreclosure"},{"address":"16-38 157th St","zip":11357,"price":1295000.0,"lat":40.78403,"lng":-73.80579,"beds":4,"baths":3.0,"type":"Multi-family home for sale"},{"address":"4413 Avenue M","zip":11234,"price":250000.0,"lat":40.621217,"lng":-73.932434,"beds":3,"baths":1.0,"type":"House for sale"},{"address":"5239 Independence Ave","zip":10471,"price":1395000.0,"lat":40.90077,"lng":-73.911078,"beds":3,"baths":2.3738608579684373,"type":"Land for sale"},{"address":"7 Middlemay Cir","zip":11375,"price":1648000.0,"lat":40.717952,"lng":-73.842778,"beds":3,"baths":4.0,"type":"Townhouse for sale"},{"address":"85-33 Radnor St","zip":11432,"price":1675000.0,"lat":40.716914,"lng":-73.783155,"beds":4,"baths":5.0,"type":"House for sale"},{"address":"66-23 Alderton St","zip":11374,"price":950000.0,"lat":40.718899,"lng":-73.858799,"beds":3,"baths":2.0,"type":"House for sale"},{"address":"180 Thompson St Apt Ld","zip":10012,"price":449500.0,"lat":40.727895,"lng":-73.999829,"beds":1,"baths":1.0,"type":"Co-op for sale"},{"address":"2902745 35 98th St Unit 15A","zip":11374,"price":184888.0,"lat":40.734341,"lng":-73.859014,"beds":3,"baths":1.0,"type":"Pending"},{"address":"664 W 161st St Apt 1F","zip":10032,"price":399000.0,"lat":40.837491,"lng":-73.945604,"beds":3,"baths":1.0,"type":"Condo for sale"},{"address":"4410 Cayuga Ave Unit B3","zip":10471,"price":209000.0,"lat":40.891596,"lng":-73.898983,"beds":1,"baths":1.0,"type":"Co-op for sale"},{"address":"1506 Overing St Unit STR3","zip":10461,"price":280000.0,"lat":40.840974,"lng":-73.845625,"beds":3,"baths":2.0,"type":"Co-op for sale"},{"address":"132-11 Centreville St","zip":11417,"price":625000.0,"lat":40.676536,"lng":-73.835177,"beds":3,"baths":2.0,"type":"House for sale"},{"address":"419 E 87th St Apt 3A","zip":10128,"price":275000.0,"lat":40.777258,"lng":-73.94767,"beds":3,"baths":1.0,"type":"Co-op for sale"},{"address":"315 Main St","zip":10307,"price":924800.0,"lat":40.507545,"lng":-74.246109,"beds":4,"baths":3.0,"type":"Multi-family home for sale"},{"address":"222-44 41st Rd","zip":11361,"price":1300000.0,"lat":40.764512,"lng":-73.75953,"beds":6,"baths":4.0,"type":"House for sale"},{"address":"65 Rensselaer Ave Unit A","zip":10312,"price":995000.0,"lat":40.55014,"lng":-74.181038,"beds":5,"baths":2.0,"type":"Multi-family home for sale"},{"address":"2150 Broadway","zip":10023,"price":16500000.0,"lat":40.78146,"lng":-73.980686,"beds":5,"baths":4.0,"type":"Condo for sale"},{"address":"370 Windham Loop","zip":10314,"price":695000.0,"lat":40.576391,"lng":-74.163138,"beds":3,"baths":2.3738608579684373,"type":"Townhouse for sale"},{"address":"2150 Broadway","zip":10023,"price":16500000.0,"lat":40.78146,"lng":-73.980686,"beds":5,"baths":4.0,"type":"Condo for sale"},{"address":"370 Windham Loop","zip":10314,"price":695000.0,"lat":40.576391,"lng":-74.163138,"beds":3,"baths":2.3738608579684373,"type":"Townhouse for sale"},{"address":"95-15 108th St","zip":11419,"price":998000.0,"lat":40.689803,"lng":-73.836542,"beds":5,"baths":3.0,"type":"Multi-family home for sale"},{"address":"1009 Forest Ave","zip":10310,"price":899000.0,"lat":40.627518,"lng":-74.123377,"beds":7,"baths":3.0,"type":"Multi-family home for sale"},{"address":"137-06 132nd Ave","zip":11436,"price":849000.0,"lat":40.669692,"lng":-73.800343,"beds":6,"baths":5.0,"type":"Multi-family home for sale"},{"address":"133 Beach 120th St Apt 2E","zip":11694,"price":235000.0,"lat":40.576751,"lng":-73.839839,"beds":3,"baths":1.0,"type":"Co-op for sale"},{"address":"320C Beach 101st St","zip":11694,"price":399999.0,"lat":40.585353,"lng":-73.822711,"beds":2,"baths":1.0,"type":"House for sale"},{"address":"860 Herkimer St","zip":11233,"price":520000.0,"lat":40.678142,"lng":-73.925058,"beds":4,"baths":2.0,"type":"House for sale"},{"address":"901 E 106th St Unit 1A","zip":11236,"price":485000.0,"lat":40.647977,"lng":-73.89367,"beds":3,"baths":2.0,"type":"Condo for sale"},{"address":"1075 Ocean Pkwy Apt 1C","zip":11230,"price":215000.0,"lat":40.622324,"lng":-73.969507,"beds":3,"baths":1.0,"type":"Co-op for sale"},{"address":"1010 Huguenot Ave","zip":10312,"price":1288000.0,"lat":40.529459,"lng":-74.190302,"beds":6,"baths":5.0,"type":"Multi-family home for sale"},{"address":"33-05 92nd St Unit 1C","zip":11372,"price":270000.0,"lat":40.756279,"lng":-73.875805,"beds":2,"baths":2.0,"type":"Co-op for sale"},{"address":"3635 Johnson Ave Apt 3G","zip":10463,"price":375000.0,"lat":40.887653,"lng":-73.909649,"beds":2,"baths":2.0,"type":"Co-op for sale"},{"address":"78 8th Ave Apt 2K","zip":11215,"price":565000.0,"lat":40.673381,"lng":-73.973247,"beds":1,"baths":1.0,"type":"Co-op for sale"},{"address":"65 Grant Ave","zip":11208,"price":849000.0,"lat":40.689503,"lng":-73.86845,"beds":4,"baths":3.0,"type":"Multi-family home for sale"},{"address":"8900 170th St Apt 7D","zip":11432,"price":199000.0,"lat":40.709216,"lng":-73.791221,"beds":2,"baths":1.0,"type":"Co-op for sale"},{"address":"5041 Goodridge Ave","zip":10471,"price":5500000.0,"lat":40.898508,"lng":-73.902753,"beds":8,"baths":6.0,"type":"House for sale"},{"address":"36-34 Clearview Expy","zip":11361,"price":899000.0,"lat":40.764659,"lng":-73.780903,"beds":4,"baths":2.3738608579684373,"type":"House for sale"},{"address":"2138 Coleman St","zip":11234,"price":699000.0,"lat":40.609586,"lng":-73.925316,"beds":3,"baths":2.0,"type":"House for sale"},{"address":"551 W 21st St Unit 15AB","zip":10011,"price":27750000.0,"lat":40.747493,"lng":-74.007267,"beds":7,"baths":8.0,"type":"Condo for sale"},{"address":"248-08 82nd Ave","zip":11426,"price":739000.0,"lat":40.738682,"lng":-73.720272,"beds":3,"baths":1.0,"type":"House for sale"},{"address":"747 E 217th St","zip":10467,"price":425000.0,"lat":40.881794,"lng":-73.861777,"beds":3,"baths":2.0,"type":"Multi-family home for sale"},{"address":"350 Richmond Ter Apt 3C","zip":10301,"price":300000.0,"lat":40.647939,"lng":-74.08527,"beds":2,"baths":1.0,"type":"Co-op for sale"},{"address":"267 Robinson Ave","zip":10465,"price":569000.0,"lat":40.814782,"lng":-73.826525,"beds":3,"baths":3.0,"type":"House for sale"},{"address":"223-30 107th Ave","zip":11429,"price":789000.0,"lat":40.70845,"lng":-73.731627,"beds":5,"baths":3.0,"type":"House for sale"},{"address":"1 Wall St Apt 4101","zip":10005,"price":10500000.0,"lat":40.707503,"lng":-74.011653,"beds":3,"baths":3.0,"type":"Condo for sale"},{"address":"274 S 2nd St Apt 30","zip":11211,"price":350000.0,"lat":40.711175,"lng":-73.957086,"beds":2,"baths":1.0,"type":"Co-op for sale"},{"address":"219 Frost St","zip":11211,"price":5895000.0,"lat":40.718565,"lng":-73.942255,"beds":8,"baths":5.0,"type":"Pending"},{"address":"346 50th St","zip":11220,"price":1250000.0,"lat":40.646878,"lng":-74.013674,"beds":7,"baths":4.0,"type":"Multi-family home for sale"},{"address":"3623 Avenue T","zip":11234,"price":1499999.0,"lat":40.608706,"lng":-73.929072,"beds":4,"baths":2.0,"type":"Townhouse for sale"},{"address":"7302 11th Ave","zip":11228,"price":1488000.0,"lat":40.624169,"lng":-74.010925,"beds":6,"baths":2.0,"type":"Multi-family home for sale"},{"address":"12 Point Breeze Ave","zip":11697,"price":285000.0,"lat":40.560753,"lng":-73.920754,"beds":3,"baths":2.3738608579684373,"type":"Land for sale"},{"address":"114-48 127th St","zip":11420,"price":699000.0,"lat":40.679332,"lng":-73.81305,"beds":3,"baths":3.0,"type":"Multi-family home for sale"},{"address":"1559 W 4th St","zip":11204,"price":924900.0,"lat":40.609435,"lng":-73.977734,"beds":3,"baths":2.0,"type":"House for sale"},{"address":"456 E 134th St","zip":10454,"price":560000.0,"lat":40.805642,"lng":-73.922974,"beds":4,"baths":2.0,"type":"Foreclosure"},{"address":"4015 Atlantic Ave","zip":11224,"price":1998000.0,"lat":40.574518,"lng":-74.00683,"beds":12,"baths":8.0,"type":"Multi-family home for sale"},{"address":"151-40 88 St Unit 5J","zip":11414,"price":309000.0,"lat":40.667434,"lng":-73.847933,"beds":3,"baths":2.0,"type":"Pending"},{"address":"2423 Woodhull Ave","zip":10469,"price":925000.0,"lat":40.86166,"lng":-73.842102,"beds":4,"baths":2.3738608579684373,"type":"Multi-family home for sale"},{"address":"65-07 181st St","zip":11365,"price":999000.0,"lat":40.736535,"lng":-73.791336,"beds":4,"baths":2.0,"type":"House for sale"},{"address":"214-10 15 Ave Unit 4B","zip":11360,"price":699000.0,"lat":40.787339,"lng":-73.779468,"beds":2,"baths":2.0,"type":"Condo for sale"},{"address":"65-38 Booth St Unit 6E","zip":11374,"price":278500.0,"lat":40.726784,"lng":-73.85878,"beds":2,"baths":1.0,"type":"Co-op for sale"},{"address":"303 E 57th St Apt 39A","zip":10022,"price":738000.0,"lat":40.759577,"lng":-73.964779,"beds":3,"baths":2.0,"type":"Co-op for sale"},{"address":"12-14 W 5th Rd","zip":11693,"price":900000.0,"lat":40.61103,"lng":-73.819506,"beds":4,"baths":4.0,"type":"House for sale"},{"address":"12310 Ocean Promenade Apt 7H","zip":11694,"price":369000.0,"lat":40.575636,"lng":-73.84232,"beds":1,"baths":1.0,"type":"Co-op for sale"},{"address":"4384 Locust Point Dr","zip":10465,"price":609000.0,"lat":40.816584,"lng":-73.8007,"beds":3,"baths":2.0,"type":"House for sale"},{"address":"3-27 Endeavor Pl Unit C","zip":11356,"price":758000.0,"lat":40.792882,"lng":-73.844921,"beds":3,"baths":2.0,"type":"Condo for sale"},{"address":"166 Rolling Hill Grn","zip":10312,"price":728000.0,"lat":40.55065,"lng":-74.193355,"beds":3,"baths":2.0,"type":"Condo for sale"},{"address":"595 Glenmore Ave","zip":11207,"price":314900.0,"lat":40.674494,"lng":-73.888376,"beds":3,"baths":3.0,"type":"House for sale"},{"address":"85-16 Chevy Chase St","zip":11432,"price":2848000.0,"lat":40.720289,"lng":-73.778693,"beds":6,"baths":2.3738608579684373,"type":"House for sale"},{"address":"62-15 82nd Pl","zip":11379,"price":1298000.0,"lat":40.723952,"lng":-73.874778,"beds":3,"baths":2.0,"type":"House for sale"},{"address":"27110 Grand Central Pkwy Ph F","zip":11005,"price":1095000.0,"lat":40.756476,"lng":-73.721201,"beds":4,"baths":4.0,"type":"Co-op for sale"},{"address":"6 Greentree Ln Unit 6","zip":10314,"price":434900.0,"lat":40.608576,"lng":-74.161039,"beds":3,"baths":2.0,"type":"Condo for sale"},{"address":"4601 Henry Hudson Pkwy W Apt A8","zip":10471,"price":375000.0,"lat":40.893847,"lng":-73.909137,"beds":2,"baths":2.0,"type":"Co-op for sale"},{"address":"1826 Radcliff Ave","zip":10462,"price":1375000.0,"lat":40.848562,"lng":-73.857459,"beds":14,"baths":8.0,"type":"Multi-family home for sale"},{"address":"128 E 38th St","zip":10016,"price":4680000.0,"lat":40.748995,"lng":-73.978382,"beds":3,"baths":4.0,"type":"Townhouse for sale"},{"address":"69-10 108 St Unit 6O","zip":11375,"price":549000.0,"lat":40.724514,"lng":-73.845844,"beds":2,"baths":2.0,"type":"Co-op for sale"},{"address":"225 Bement Ave","zip":10310,"price":549000.0,"lat":40.636854,"lng":-74.112457,"beds":3,"baths":1.0,"type":"House for sale"},{"address":"67-44 Kessel St","zip":11375,"price":950000.0,"lat":40.715727,"lng":-73.856345,"beds":3,"baths":2.0,"type":"House for sale"},{"address":"157 Broome St Apt 3E","zip":10002,"price":388000.0,"lat":40.716273,"lng":-73.984986,"beds":3,"baths":1.0,"type":"Condo for sale"},{"address":"111 E 19th St","zip":10003,"price":5600000.0,"lat":40.737535,"lng":-73.987245,"beds":6,"baths":6.0,"type":"Townhouse for sale"},{"address":"85-29 66th Ave","zip":11374,"price":1600000.0,"lat":40.718969,"lng":-73.862604,"beds":8,"baths":6.0,"type":"Multi-family home for sale"},{"address":"239 E 78th St","zip":10075,"price":6995000.0,"lat":40.773212,"lng":-73.956428,"beds":5,"baths":2.3738608579684373,"type":"Townhouse for sale"},{"address":"61-29 75th St","zip":11379,"price":1399000.0,"lat":40.721725,"lng":-73.883977,"beds":6,"baths":2.0,"type":"Multi-family home for sale"},{"address":"117-02 111th Ave","zip":11420,"price":399000.0,"lat":40.679832,"lng":-73.82277,"beds":3,"baths":2.3738608579684373,"type":"House for sale"},{"address":"175 Adams St Apt 10E","zip":11201,"price":529900.0,"lat":40.698571,"lng":-73.988191,"beds":1,"baths":1.0,"type":"Pending"},{"address":"59-14 69th St","zip":11378,"price":999000.0,"lat":40.722747,"lng":-73.894106,"beds":5,"baths":2.0,"type":"Pending"},{"address":"81-15 Queens Blvd Unit 3C","zip":11373,"price":575000.0,"lat":40.737308,"lng":-73.878333,"beds":2,"baths":2.0,"type":"Condo for sale"},{"address":"216-10 17th Ave Unit TH53","zip":11360,"price":659900.0,"lat":40.785508,"lng":-73.776231,"beds":3,"baths":4.0,"type":"Pending"},{"address":"484 A 7th Ave","zip":11215,"price":2200000.0,"lat":40.662106,"lng":-73.985758,"beds":6,"baths":3.0,"type":"Townhouse for sale"},{"address":"24907 88th Rd","zip":11426,"price":898888.0,"lat":40.728238,"lng":-73.715812,"beds":5,"baths":2.0,"type":"Multi-family home for sale"},{"address":"148 Claypit Rd","zip":10309,"price":1250000.0,"lat":40.539558,"lng":-74.222908,"beds":5,"baths":4.0,"type":"House for sale"},{"address":"1861 82nd St","zip":11214,"price":1188000.0,"lat":40.608553,"lng":-73.998257,"beds":3,"baths":2.0,"type":"Multi-family home for sale"},{"address":"428 Bradley Ave","zip":10314,"price":869999.0,"lat":40.600552,"lng":-74.131451,"beds":5,"baths":3.0,"type":"Multi-family home for sale"},{"address":"2229 Knapp St Apt 2A","zip":11229,"price":219000.0,"lat":40.598891,"lng":-73.933468,"beds":3,"baths":1.0,"type":"Co-op for sale"},{"address":"653 Jerome St","zip":11207,"price":210000.0,"lat":40.664748,"lng":-73.884184,"beds":3,"baths":2.3738608579684373,"type":"House for sale"},{"address":"737 Pine St","zip":11208,"price":799000.0,"lat":40.667267,"lng":-73.868622,"beds":6,"baths":2.0,"type":"Multi-family home for sale"},{"address":"1425 Thieriot Ave Apt 6L","zip":10460,"price":298000.0,"lat":40.836324,"lng":-73.865476,"beds":3,"baths":2.0,"type":"Co-op for sale"},{"address":"25 Tarring St","zip":10306,"price":1248888.0,"lat":40.564631,"lng":-74.124325,"beds":4,"baths":4.0,"type":"House for sale"},{"address":"313 W 118th St Apt 3D","zip":10026,"price":1075000.0,"lat":40.806158,"lng":-73.955095,"beds":2,"baths":2.0,"type":"Pending"},{"address":"633 Prospect Pl Apt 1","zip":11216,"price":1695000.0,"lat":40.675011,"lng":-73.955465,"beds":2,"baths":2.0,"type":"Pending"},{"address":"30 Main St Ph B","zip":11201,"price":3795000.0,"lat":40.702988,"lng":-73.99078,"beds":3,"baths":2.0,"type":"Condo for sale"},{"address":"62-48 Mount Olivet Cres Unit 1B","zip":11379,"price":550000.0,"lat":40.713547,"lng":-73.895855,"beds":2,"baths":2.0,"type":"Condo for sale"},{"address":"46 Commerce St # 5","zip":10014,"price":775000.0,"lat":40.731354,"lng":-74.005057,"beds":3,"baths":1.0,"type":"Co-op for sale"},{"address":"1100 Clove Rd Unit G0","zip":10301,"price":249900.0,"lat":40.618948,"lng":-74.107158,"beds":2,"baths":2.0,"type":"Foreclosure"},{"address":"318 Arthur Kill Rd","zip":10308,"price":650000.0,"lat":40.566306,"lng":-74.152955,"beds":4,"baths":1.0,"type":"House for sale"},{"address":"8701 Shore Rd Apt 435","zip":11209,"price":410000.0,"lat":40.62492,"lng":-74.04047,"beds":1,"baths":1.0,"type":"Co-op for sale"},{"address":"2331 W 12th St","zip":11223,"price":1650000.0,"lat":40.590659,"lng":-73.981832,"beds":9,"baths":5.0,"type":"Multi-family home for sale"},{"address":"159 W 24th St Apt 5B","zip":10011,"price":1600000.0,"lat":40.744822,"lng":-73.994463,"beds":2,"baths":2.0,"type":"Pending"},{"address":"67-12 Yellowstone Blvd Unit B1","zip":11375,"price":325000.0,"lat":40.728089,"lng":-73.849483,"beds":2,"baths":1.0,"type":"Co-op for sale"},{"address":"177 3rd St Unit 1","zip":10306,"price":275000.0,"lat":40.573593,"lng":-74.120023,"beds":2,"baths":1.0,"type":"Contingent"},{"address":"3610 Corlear Ave","zip":10463,"price":700000.0,"lat":40.884402,"lng":-73.902834,"beds":3,"baths":2.0,"type":"House for sale"},{"address":"32-16 61st St","zip":11377,"price":930000.0,"lat":40.755533,"lng":-73.901685,"beds":3,"baths":2.0,"type":"House for sale"},{"address":"190 Schofield St Apt 3I","zip":10464,"price":379000.0,"lat":40.845063,"lng":-73.783581,"beds":1,"baths":2.0,"type":"Condo for sale"},{"address":"2234 62nd St","zip":11204,"price":1150000.0,"lat":40.614924,"lng":-73.978928,"beds":3,"baths":2.3738608579684373,"type":"House for sale"},{"address":"98-05 63 Rd Unit 4E","zip":11374,"price":568888.0,"lat":40.732222,"lng":-73.858885,"beds":3,"baths":2.0,"type":"Co-op for sale"},{"address":"244 Four Corners Rd","zip":10304,"price":1200000.0,"lat":40.59194,"lng":-74.108741,"beds":4,"baths":3.0,"type":"House for sale"},{"address":"712 Katan Ave","zip":10312,"price":899900.0,"lat":40.549935,"lng":-74.170993,"beds":3,"baths":3.0,"type":"Foreclosure"},{"address":"1412 Bonnie Ln Apt 2","zip":11360,"price":799999.0,"lat":40.785914,"lng":-73.786878,"beds":3,"baths":2.0,"type":"Condo for sale"},{"address":"348 Legion St","zip":11212,"price":300000.0,"lat":40.660155,"lng":-73.916372,"beds":3,"baths":4.0,"type":"Multi-family home for sale"},{"address":"3037 Richmond Rd","zip":10306,"price":750000.0,"lat":40.575824,"lng":-74.122734,"beds":4,"baths":3.0,"type":"Foreclosure"},{"address":"416 Colon Ave","zip":10308,"price":669999.0,"lat":40.559812,"lng":-74.158517,"beds":4,"baths":2.0,"type":"House for sale"},{"address":"15 Portland Pl","zip":10301,"price":575000.0,"lat":40.633728,"lng":-74.09361,"beds":2,"baths":1.0,"type":"Contingent"},{"address":"2212 Brigham St Apt 3C","zip":11229,"price":299000.0,"lat":40.598779,"lng":-73.935049,"beds":3,"baths":1.0,"type":"Co-op for sale"},{"address":"89 Taft Ave","zip":10301,"price":548800.0,"lat":40.640946,"lng":-74.085993,"beds":3,"baths":4.0,"type":"House for sale"},{"address":"14 E 69th St Unit Townhouse","zip":10021,"price":28500000.0,"lat":40.769934,"lng":-73.967507,"beds":7,"baths":9.0,"type":"Townhouse for sale"},{"address":"84-25 118 St Unit 1B","zip":11418,"price":259000.0,"lat":40.70415,"lng":-73.83371,"beds":2,"baths":1.0,"type":"Co-op for sale"},{"address":"70-25 Yellowstone Blvd Unit 14X","zip":11375,"price":425000.0,"lat":40.72261,"lng":-73.8495,"beds":2,"baths":1.0,"type":"Co-op for sale"},{"address":"68 Schenck Ave","zip":11207,"price":950000.0,"lat":40.679541,"lng":-73.890443,"beds":4,"baths":2.0,"type":"House for sale"},{"address":"526 W 158th St Apt 64","zip":10032,"price":185000.0,"lat":40.833945,"lng":-73.943236,"beds":2,"baths":1.0,"type":"Co-op for sale"},{"address":"373 Manor Rd","zip":11363,"price":1688888.0,"lat":40.777352,"lng":-73.74643,"beds":4,"baths":3.0,"type":"House for sale"},{"address":"84-25 118 St Unit 1B","zip":11418,"price":259000.0,"lat":40.70415,"lng":-73.83371,"beds":2,"baths":1.0,"type":"Co-op for sale"},{"address":"68 Schenck Ave","zip":11207,"price":950000.0,"lat":40.679541,"lng":-73.890443,"beds":4,"baths":2.0,"type":"House for sale"},{"address":"373 Manor Rd","zip":11363,"price":1688888.0,"lat":40.777352,"lng":-73.74643,"beds":4,"baths":3.0,"type":"House for sale"},{"address":"262 E 197th St","zip":10458,"price":689000.0,"lat":40.868175,"lng":-73.889765,"beds":6,"baths":3.0,"type":"Multi-family home for sale"},{"address":"150-58 Jewel Ave Unit 75A","zip":11367,"price":419000.0,"lat":40.73128,"lng":-73.81924,"beds":2,"baths":1.0,"type":"Co-op for sale"},{"address":"4193 Ocean Ave","zip":11235,"price":1199000.0,"lat":40.578304,"lng":-73.947164,"beds":4,"baths":2.0,"type":"House for sale"},{"address":"153 Jaffrey St","zip":11235,"price":2150000.0,"lat":40.579077,"lng":-73.942526,"beds":4,"baths":2.3738608579684373,"type":"House for sale"},{"address":"82 Mulberry Ave","zip":10314,"price":899000.0,"lat":40.595555,"lng":-74.167794,"beds":3,"baths":4.0,"type":"House for sale"},{"address":"102-26 213th St","zip":11429,"price":675000.0,"lat":40.712156,"lng":-73.74528,"beds":3,"baths":2.0,"type":"House for sale"},{"address":"20 E 35th St Apt 3D","zip":10016,"price":875000.0,"lat":40.748098,"lng":-73.982479,"beds":2,"baths":1.0,"type":"Co-op for sale"},{"address":"529 W 42nd St Apt 6L","zip":10036,"price":899000.0,"lat":40.760419,"lng":-73.996809,"beds":2,"baths":1.0,"type":"House for sale"},{"address":"8377 Woodhaven Blvd Apt 2B","zip":11421,"price":219000.0,"lat":40.69999,"lng":-73.8539,"beds":2,"baths":1.0,"type":"Co-op for sale"},{"address":"2962 Decatur Ave Apt 1C","zip":10458,"price":120000.0,"lat":40.868366,"lng":-73.883209,"beds":2,"baths":1.0,"type":"Co-op for sale"},{"address":"581 Academy St Apt 1G","zip":10034,"price":470000.0,"lat":40.864002,"lng":-73.923192,"beds":2,"baths":1.0,"type":"Condo for sale"},{"address":"4315 Webster Ave Apt 3L","zip":10470,"price":229000.0,"lat":40.899519,"lng":-73.862368,"beds":2,"baths":1.0,"type":"Co-op for sale"},{"address":"8001 New Utrecht Ave","zip":11214,"price":3000000.0,"lat":40.611548,"lng":-74.000866,"beds":3,"baths":32.0,"type":"Multi-family home for sale"},{"address":"116 Audley St","zip":11415,"price":1199000.0,"lat":40.709027,"lng":-73.8336,"beds":5,"baths":4.0,"type":"Pending"},{"address":"3812 Cypress Ave","zip":11224,"price":1498000.0,"lat":40.578415,"lng":-74.006463,"beds":9,"baths":8.0,"type":"Multi-family home for sale"},{"address":"411 E 53rd St # 4HJ","zip":10022,"price":2000000.0,"lat":40.755794,"lng":-73.964281,"beds":4,"baths":3.0,"type":"Condo for sale"},{"address":"100 Vandam St Apt 20A","zip":10013,"price":50000000.0,"lat":40.726633,"lng":-74.008832,"beds":6,"baths":6.0,"type":"Condo for sale"},{"address":"156-23 88th St","zip":11414,"price":550000.0,"lat":40.662811,"lng":-73.84535,"beds":3,"baths":2.0,"type":"House for sale"},{"address":"161 Greenleaf Ave","zip":10310,"price":499000.0,"lat":40.626539,"lng":-74.126393,"beds":3,"baths":1.0,"type":"Pending"},{"address":"860 E 232nd St","zip":10466,"price":800000.0,"lat":40.890981,"lng":-73.852818,"beds":6,"baths":3.0,"type":"Multi-family home for sale"},{"address":"155-07 86th St Unit 102","zip":11414,"price":239000.0,"lat":40.665,"lng":-73.84857,"beds":2,"baths":1.0,"type":"Co-op for sale"},{"address":"26 Washington Sq N","zip":10011,"price":29950000.0,"lat":40.732221,"lng":-73.998628,"beds":10,"baths":13.0,"type":"Townhouse for sale"},{"address":"107 Salamander Ct","zip":10309,"price":674999.0,"lat":40.539413,"lng":-74.222839,"beds":3,"baths":2.0,"type":"House for sale"},{"address":"38 Monroe Pl","zip":11201,"price":14000000.0,"lat":40.695859,"lng":-73.992523,"beds":5,"baths":2.3738608579684373,"type":"Townhouse for sale"},{"address":"154-69 26th Ave","zip":11354,"price":1228000.0,"lat":40.773977,"lng":-73.807099,"beds":3,"baths":2.0,"type":"House for sale"},{"address":"120-10 Ketch Ct Unit 34","zip":11356,"price":880000.0,"lat":40.793455,"lng":-73.847162,"beds":4,"baths":4.0,"type":"Condo for sale"},{"address":"98-120 Queens Blvd Unit 6K","zip":11374,"price":369888.0,"lat":40.726843,"lng":-73.85458,"beds":2,"baths":2.0,"type":"Co-op for sale"},{"address":"465 Park Ave Unit 34E","zip":10022,"price":500000.0,"lat":40.761646,"lng":-73.970129,"beds":2,"baths":2.0,"type":"Co-op for sale"},{"address":"205-05 Jamaica Ave","zip":11423,"price":499000.0,"lat":40.713904,"lng":-73.754948,"beds":4,"baths":3.0,"type":"Multi-family home for sale"},{"address":"28-05 216th St","zip":11360,"price":2998888.0,"lat":40.778244,"lng":-73.770693,"beds":5,"baths":2.3738608579684373,"type":"House for sale"},{"address":"60 Knolls Cres Apt 8M","zip":10463,"price":175849.0,"lat":40.879078,"lng":-73.91752,"beds":2,"baths":1.0,"type":"Co-op for sale"},{"address":"32 Barker St","zip":10310,"price":499000.0,"lat":40.636532,"lng":-74.121862,"beds":3,"baths":2.0,"type":"Multi-family home for sale"},{"address":"861 E 231st St","zip":10466,"price":899975.0,"lat":40.890635,"lng":-73.853094,"beds":6,"baths":3.0,"type":"Multi-family home for sale"},{"address":"71-28 Manse St","zip":11375,"price":1474000.0,"lat":40.711442,"lng":-73.849078,"beds":4,"baths":2.0,"type":"House for sale"},{"address":"79 Grandview Ter","zip":10308,"price":2750000.0,"lat":40.546253,"lng":-74.148173,"beds":6,"baths":5.0,"type":"House for sale"},{"address":"7923 11th Ave","zip":11228,"price":3999000.0,"lat":40.620141,"lng":-74.014486,"beds":3,"baths":2.3738608579684373,"type":"House for sale"},{"address":"76-66 174th St","zip":11366,"price":1288000.0,"lat":40.724807,"lng":-73.795376,"beds":4,"baths":2.0,"type":"House for sale"},{"address":"719 Vermont St","zip":11207,"price":499000.0,"lat":40.661825,"lng":-73.890638,"beds":4,"baths":2.0,"type":"Foreclosure"},{"address":"70 Weed Ave","zip":10306,"price":989000.0,"lat":40.565755,"lng":-74.105116,"beds":4,"baths":4.0,"type":"House for sale"},{"address":"827 Richmond Rd","zip":10304,"price":650000.0,"lat":40.607125,"lng":-74.092589,"beds":3,"baths":2.0,"type":"House for sale"},{"address":"181 Androvette Ave","zip":10312,"price":1999999.0,"lat":40.526862,"lng":-74.189752,"beds":4,"baths":4.0,"type":"Contingent"},{"address":"96 Bank St","zip":10014,"price":5990000.0,"lat":40.736323,"lng":-74.00644,"beds":4,"baths":4.0,"type":"Townhouse for sale"},{"address":"2501 Palisade Ave Apt D2","zip":10463,"price":1235000.0,"lat":40.879973,"lng":-73.922142,"beds":3,"baths":2.0,"type":"Co-op for sale"},{"address":"10 Park Ave Unit 10K","zip":10016,"price":785000.0,"lat":40.747355,"lng":-73.981384,"beds":1,"baths":1.0,"type":"Co-op for sale"},{"address":"870 Riverside Dr Apt 5D","zip":10032,"price":750000.0,"lat":40.836895,"lng":-73.946503,"beds":3,"baths":2.0,"type":"Co-op for sale"},{"address":"25-01 23rd Ave","zip":11105,"price":1400000.0,"lat":40.777088,"lng":-73.916269,"beds":3,"baths":3.0,"type":"Multi-family home for sale"},{"address":"910 Revere Ave","zip":10465,"price":865000.0,"lat":40.829724,"lng":-73.826341,"beds":6,"baths":3.0,"type":"Multi-family home for sale"},{"address":"35-31 85th St Unit 7F","zip":11372,"price":324000.0,"lat":40.75125,"lng":-73.881443,"beds":1,"baths":1.0,"type":"Co-op for sale"},{"address":"7126 Amboy Rd","zip":10307,"price":1100000.0,"lat":40.513689,"lng":-74.23648,"beds":3,"baths":4.0,"type":"House for sale"},{"address":"4415 Atlantic Ave","zip":11224,"price":2295000.0,"lat":40.575795,"lng":-74.009975,"beds":3,"baths":7.0,"type":"Multi-family home for sale"},{"address":"69 Orange St","zip":11201,"price":8950000.0,"lat":40.699041,"lng":-73.992904,"beds":4,"baths":2.0,"type":"House for sale"},{"address":"252 Ionia Ave","zip":10312,"price":1348888.0,"lat":40.543033,"lng":-74.182131,"beds":3,"baths":4.0,"type":"Multi-family home for sale"},{"address":"5620 Netherland Ave Apt 3G","zip":10471,"price":220000.0,"lat":40.904935,"lng":-73.90609,"beds":2,"baths":1.0,"type":"Co-op for sale"},{"address":"789 Macdonough St Apt 4G","zip":11233,"price":185000.0,"lat":40.684563,"lng":-73.914482,"beds":1,"baths":1.0,"type":"Co-op for sale"},{"address":"514 E 235th St","zip":10470,"price":499000.0,"lat":40.897843,"lng":-73.863361,"beds":2,"baths":2.0,"type":"House for sale"},{"address":"362 90th St","zip":11209,"price":999999.0,"lat":40.620076,"lng":-74.030611,"beds":4,"baths":3.0,"type":"Multi-family home for sale"},{"address":"51 Barrow St","zip":10014,"price":4995000.0,"lat":40.731968,"lng":-74.004386,"beds":2,"baths":2.0,"type":"Townhouse for sale"},{"address":"248 E 7th St # 9/10","zip":10009,"price":700000.0,"lat":40.723565,"lng":-73.97818,"beds":2,"baths":1.0,"type":"Pending"},{"address":"45-33 Zion St","zip":11362,"price":1180000.0,"lat":40.766858,"lng":-73.737557,"beds":4,"baths":4.0,"type":"House for sale"},{"address":"132-03 Sanford Ave Unit 3H","zip":11355,"price":609000.0,"lat":40.755015,"lng":-73.832981,"beds":2,"baths":2.0,"type":"Condo for sale"},{"address":"2525 W 2nd St Apt 2E","zip":11223,"price":250000.0,"lat":40.587572,"lng":-73.971282,"beds":2,"baths":1.0,"type":"Co-op for sale"},{"address":"111-45 120th St","zip":11420,"price":689000.0,"lat":40.679471,"lng":-73.819564,"beds":3,"baths":2.0,"type":"House for sale"},{"address":"12-86 Augustina Ave","zip":11691,"price":585000.0,"lat":40.608279,"lng":-73.74951,"beds":4,"baths":2.0,"type":"Multi-family home for sale"},{"address":"1000 Clove Rd Apt 9F","zip":10301,"price":109500.0,"lat":40.620264,"lng":-74.109911,"beds":3,"baths":1.0,"type":"Condo for sale"},{"address":"410 E 57th St Apt 8B","zip":10022,"price":299000.0,"lat":40.757832,"lng":-73.962456,"beds":3,"baths":1.0,"type":"Co-op for sale"},{"address":"23 Howard Ave","zip":10301,"price":995000.0,"lat":40.629368,"lng":-74.087037,"beds":3,"baths":2.0,"type":"House for sale"},{"address":"338 77th St","zip":11209,"price":1499000.0,"lat":40.629498,"lng":-74.02725,"beds":6,"baths":2.0,"type":"Multi-family home for sale"},{"address":"193-15 37 Ave Unit 177","zip":11358,"price":299000.0,"lat":40.76263,"lng":-73.78916,"beds":2,"baths":1.0,"type":"Co-op for sale"},{"address":"57 Park Terrace Ter W Unit 3F","zip":10034,"price":279000.0,"lat":40.87127,"lng":-73.917853,"beds":3,"baths":1.0,"type":"Co-op for sale"},{"address":"131-16 115 Ave","zip":11420,"price":235000.0,"lat":40.679765,"lng":-73.809167,"beds":3,"baths":2.0,"type":"House for sale"},{"address":"41 Central Park W Unit 11A","zip":10023,"price":17900000.0,"lat":40.771379,"lng":-73.979858,"beds":6,"baths":4.0,"type":"Co-op for sale"},{"address":"914 Pine St","zip":11208,"price":950000.0,"lat":40.662624,"lng":-73.868021,"beds":5,"baths":3.0,"type":"Townhouse for sale"},{"address":"149-47 26th Ave","zip":11354,"price":859000.0,"lat":40.774652,"lng":-73.81583,"beds":2,"baths":2.0,"type":"House for sale"},{"address":"34-51 74th St","zip":11372,"price":1999000.0,"lat":40.751871,"lng":-73.892274,"beds":5,"baths":4.0,"type":"House for sale"},{"address":"86-84 188th St","zip":11423,"price":1458888.0,"lat":40.718209,"lng":-73.775417,"beds":8,"baths":2.3738608579684373,"type":"Multi-family home for sale"},{"address":"36A Rochester Ave","zip":11233,"price":650000.0,"lat":40.677921,"lng":-73.927769,"beds":5,"baths":3.0,"type":"House for sale"},{"address":"7619 10th Ave","zip":11228,"price":1100000.0,"lat":40.623157,"lng":-74.014841,"beds":4,"baths":3.0,"type":"House for sale"},{"address":"65-18 Austin St Unit 2C","zip":11374,"price":478900.0,"lat":40.725976,"lng":-73.85998,"beds":1,"baths":1.0,"type":"Condo for sale"},{"address":"25 Fifth Ave Unit 5B","zip":10003,"price":2795000.0,"lat":40.735321,"lng":-73.994131,"beds":2,"baths":2.0,"type":"Condo for sale"},{"address":"45 St Pauls Ave","zip":10301,"price":560000.0,"lat":40.63661,"lng":-74.077825,"beds":5,"baths":2.0,"type":"Multi-family home for sale"},{"address":"108 Dutchess Ave","zip":10304,"price":868000.0,"lat":40.596366,"lng":-74.099747,"beds":3,"baths":4.0,"type":"Multi-family home for sale"},{"address":"196-11 45th Ave","zip":11358,"price":999000.0,"lat":40.756293,"lng":-73.784948,"beds":3,"baths":2.0,"type":"House for sale"},{"address":"149-43 Hawtree St","zip":11417,"price":1590000.0,"lat":40.672995,"lng":-73.837319,"beds":5,"baths":6.0,"type":"Multi-family home for sale"},{"address":"219 W 144th St Apt 41","zip":10030,"price":149000.0,"lat":40.821309,"lng":-73.939998,"beds":1,"baths":1.0,"type":"Co-op for sale"},{"address":"121-42 Laurelton Pkwy","zip":11422,"price":594900.0,"lat":40.682481,"lng":-73.727949,"beds":4,"baths":2.0,"type":"House for sale"},{"address":"1462 E 23rd St","zip":11210,"price":799000.0,"lat":40.614669,"lng":-73.951592,"beds":3,"baths":2.0,"type":"House for sale"},{"address":"145-90 222nd St","zip":11413,"price":985000.0,"lat":40.661507,"lng":-73.758197,"beds":6,"baths":5.0,"type":"Multi-family home for sale"},{"address":"116-33 198th St","zip":11412,"price":685000.0,"lat":40.694631,"lng":-73.754049,"beds":4,"baths":2.0,"type":"House for sale"},